%time,field.header.seq,field.header.stamp,field.header.frame_id,field.child_frame_id,field.pose.pose.position.x,field.pose.pose.position.y,field.pose.pose.position.z,field.pose.pose.orientation.x,field.pose.pose.orientation.y,field.pose.pose.orientation.z,field.pose.pose.orientation.w,field.pose.covariance0,field.pose.covariance1,field.pose.covariance2,field.pose.covariance3,field.pose.covariance4,field.pose.covariance5,field.pose.covariance6,field.pose.covariance7,field.pose.covariance8,field.pose.covariance9,field.pose.covariance10,field.pose.covariance11,field.pose.covariance12,field.pose.covariance13,field.pose.covariance14,field.pose.covariance15,field.pose.covariance16,field.pose.covariance17,field.pose.covariance18,field.pose.covariance19,field.pose.covariance20,field.pose.covariance21,field.pose.covariance22,field.pose.covariance23,field.pose.covariance24,field.pose.covariance25,field.pose.covariance26,field.pose.covariance27,field.pose.covariance28,field.pose.covariance29,field.pose.covariance30,field.pose.covariance31,field.pose.covariance32,field.pose.covariance33,field.pose.covariance34,field.pose.covariance35,field.twist.twist.linear.x,field.twist.twist.linear.y,field.twist.twist.linear.z,field.twist.twist.angular.x,field.twist.twist.angular.y,field.twist.twist.angular.z,field.twist.covariance0,field.twist.covariance1,field.twist.covariance2,field.twist.covariance3,field.twist.covariance4,field.twist.covariance5,field.twist.covariance6,field.twist.covariance7,field.twist.covariance8,field.twist.covariance9,field.twist.covariance10,field.twist.covariance11,field.twist.covariance12,field.twist.covariance13,field.twist.covariance14,field.twist.covariance15,field.twist.covariance16,field.twist.covariance17,field.twist.covariance18,field.twist.covariance19,field.twist.covariance20,field.twist.covariance21,field.twist.covariance22,field.twist.covariance23,field.twist.covariance24,field.twist.covariance25,field.twist.covariance26,field.twist.covariance27,field.twist.covariance28,field.twist.covariance29,field.twist.covariance30,field.twist.covariance31,field.twist.covariance32,field.twist.covariance33,field.twist.covariance34,field.twist.covariance35
194506000000,5823,194505000000,odom,base_footprint,1.9530168494481457,1.9698182757814875,-0.0010019478585580714,-0.0009169632128220873,0.003746534375512366,0.23546418768013966,0.9718753721433483,1e-05,0.0,0.0,0.0,0.0,0.0,0.0,1e-05,0.0,0.0,0.0,0.0,0.0,0.0,1000000000000.0,0.0,0.0,0.0,0.0,0.0,0.0,1000000000000.0,0.0,0.0,0.0,0.0,0.0,0.0,1000000000000.0,0.0,0.0,0.0,0.0,0.0,0.0,0.001,-7.670171507785442e-05,-6.91337039711743e-07,0.0,0.0,0.0,-0.0002960744046142922,0.0,0.0,0.0,0.0,0.0,0.0,0.0,0.0,0.0,0.0,0.0,0.0,0.0,0.0,0.0,0.0,0.0,0.0,0.0,0.0,0.0,0.0,0.0,0.0,0.0,0.0,0.0,0.0,0.0,0.0,0.0,0.0,0.0,0.0,0.0,0.0
194539000000,5824,194538000000,odom,base_footprint,1.9530149663996006,1.9698173167885948,-0.0010019479138233568,-0.0009169474056282918,0.0037465386801119552,0.23546006276748552,0.9718763715086943,1e-05,0.0,0.0,0.0,0.0,0.0,0.0,1e-05,0.0,0.0,0.0,0.0,0.0,0.0,1000000000000.0,0.0,0.0,0.0,0.0,0.0,0.0,1000000000000.0,0.0,0.0,0.0,0.0,0.0,0.0,1000000000000.0,0.0,0.0,0.0,0.0,0.0,0.0,0.001,-7.66977770720848e-05,-6.912803579475277e-07,0.0,0.0,0.0,-0.00029624967001871006,0.0,0.0,0.0,0.0,0.0,0.0,0.0,0.0,0.0,0.0,0.0,0.0,0.0,0.0,0.0,0.0,0.0,0.0,0.0,0.0,0.0,0.0,0.0,0.0,0.0,0.0,0.0,0.0,0.0,0.0,0.0,0.0,0.0,0.0,0.0,0.0
194572000000,5825,194571000000,odom,base_footprint,1.9530130834424264,1.9698163578656578,-0.0010019479690931837,-0.0009169315890732169,0.003746542986974071,0.23545593543681534,0.9718773714413161,1e-05,0.0,0.0,0.0,0.0,0.0,0.0,1e-05,0.0,0.0,0.0,0.0,0.0,0.0,1000000000000.0,0.0,0.0,0.0,0.0,0.0,0.0,1000000000000.0,0.0,0.0,0.0,0.0,0.0,0.0,1000000000000.0,0.0,0.0,0.0,0.0,0.0,0.0,0.001,-7.669384366512483e-05,-6.912017151327265e-07,0.0,0.0,0.0,-0.0002964250018731455,0.0,0.0,0.0,0.0,0.0,0.0,0.0,0.0,0.0,0.0,0.0,0.0,0.0,0.0,0.0,0.0,0.0,0.0,0.0,0.0,0.0,0.0,0.0,0.0,0.0,0.0,0.0,0.0,0.0,0.0,0.0,0.0,0.0,0.0,0.0,0.0
194606000000,5826,194605000000,odom,base_footprint,1.9530111435216633,1.9698153699579308,-0.0010019480260508237,-0.0009169152834126599,0.0037465474267707292,0.23545168050335166,0.9718784022689719,1e-05,0.0,0.0,0.0,0.0,0.0,0.0,1e-05,0.0,0.0,0.0,0.0,0.0,0.0,1000000000000.0,0.0,0.0,0.0,0.0,0.0,0.0,1000000000000.0,0.0,0.0,0.0,0.0,0.0,0.0,1000000000000.0,0.0,0.0,0.0,0.0,0.0,0.0,0.001,-7.668979963270529e-05,-6.91016795530472e-07,0.0,0.0,0.0,-0.0002966061637263362,0.0,0.0,0.0,0.0,0.0,0.0,0.0,0.0,0.0,0.0,0.0,0.0,0.0,0.0,0.0,0.0,0.0,0.0,0.0,0.0,0.0,0.0,0.0,0.0,0.0,0.0,0.0,0.0,0.0,0.0,0.0,0.0,0.0,0.0,0.0,0.0
194639000000,5827,194638000000,odom,base_footprint,1.953009260750054,1.9698144111773161,-0.0010019480813371166,-0.0009168994478083565,0.0037465517382838124,0.23544754825932063,0.9718794033542176,1e-05,0.0,0.0,0.0,0.0,0.0,0.0,1e-05,0.0,0.0,0.0,0.0,0.0,0.0,1000000000000.0,0.0,0.0,0.0,0.0,0.0,0.0,1000000000000.0,0.0,0.0,0.0,0.0,0.0,0.0,1000000000000.0,0.0,0.0,0.0,0.0,0.0,0.0,0.001,-7.668587165160121e-05,-6.908377895231216e-07,0.0,0.0,0.0,-0.000296782017999729,0.0,0.0,0.0,0.0,0.0,0.0,0.0,0.0,0.0,0.0,0.0,0.0,0.0,0.0,0.0,0.0,0.0,0.0,0.0,0.0,0.0,0.0,0.0,0.0,0.0,0.0,0.0,0.0,0.0,0.0,0.0,0.0,0.0,0.0,0.0,0.0
194672000000,5828,194671000000,odom,base_footprint,1.9530073780696442,1.9698134524665936,-0.0010019481366245232,-0.0009168836028290068,0.0037465560520308877,0.2354434135968617,0.97188040500674,1e-05,0.0,0.0,0.0,0.0,0.0,0.0,1e-05,0.0,0.0,0.0,0.0,0.0,0.0,1000000000000.0,0.0,0.0,0.0,0.0,0.0,0.0,1000000000000.0,0.0,0.0,0.0,0.0,0.0,0.0,1000000000000.0,0.0,0.0,0.0,0.0,0.0,0.0,0.001,-7.66819519199377e-05,-6.906586200055271e-07,0.0,0.0,0.0,-0.00029695782672903173,0.0,0.0,0.0,0.0,0.0,0.0,0.0,0.0,0.0,0.0,0.0,0.0,0.0,0.0,0.0,0.0,0.0,0.0,0.0,0.0,0.0,0.0,0.0,0.0,0.0,0.0,0.0,0.0,0.0,0.0,0.0,0.0,0.0,0.0,0.0,0.0
194706000000,5829,194705000000,odom,base_footprint,1.9530054384336564,1.9698124647771165,-0.0010019481935919193,-0.0009168672679156912,0.003746560498857849,0.23543915111243563,0.9718814376055843,1e-05,0.0,0.0,0.0,0.0,0.0,0.0,1e-05,0.0,0.0,0.0,0.0,0.0,0.0,1000000000000.0,0.0,0.0,0.0,0.0,0.0,0.0,1000000000000.0,0.0,0.0,0.0,0.0,0.0,0.0,1000000000000.0,0.0,0.0,0.0,0.0,0.0,0.0,0.001,-7.667791766579003e-05,-6.904704433110924e-07,0.0,0.0,0.0,-0.00029713886858364903,0.0,0.0,0.0,0.0,0.0,0.0,0.0,0.0,0.0,0.0,0.0,0.0,0.0,0.0,0.0,0.0,0.0,0.0,0.0,0.0,0.0,0.0,0.0,0.0,0.0,0.0,0.0,0.0,0.0,0.0,0.0,0.0,0.0,0.0,0.0,0.0
194739000000,5830,194738000000,odom,base_footprint,1.9530035559380885,1.9698115062077213,-0.0010019482488687337,-0.000916851403705796,0.0037465648171509007,0.23543501154450952,0.9718824404086182,1e-05,0.0,0.0,0.0,0.0,0.0,0.0,1e-05,0.0,0.0,0.0,0.0,0.0,0.0,1000000000000.0,0.0,0.0,0.0,0.0,0.0,0.0,1000000000000.0,0.0,0.0,0.0,0.0,0.0,0.0,1000000000000.0,0.0,0.0,0.0,0.0,0.0,0.0,0.001,-7.667405376416855e-05,-6.905011173936562e-07,0.0,0.0,0.0,-0.00029731346738744234,0.0,0.0,0.0,0.0,0.0,0.0,0.0,0.0,0.0,0.0,0.0,0.0,0.0,0.0,0.0,0.0,0.0,0.0,0.0,0.0,0.0,0.0,0.0,0.0,0.0,0.0,0.0,0.0,0.0,0.0,0.0,0.0,0.0,0.0,0.0,0.0
194772000000,5831,194771000000,odom,base_footprint,1.953001673533127,1.9698105477077503,-0.0010019483041371,-0.0009168355297614819,0.003746569137776743,0.2354308695649817,0.9718834437771763,1e-05,0.0,0.0,0.0,0.0,0.0,0.0,1e-05,0.0,0.0,0.0,0.0,0.0,0.0,1000000000000.0,0.0,0.0,0.0,0.0,0.0,0.0,1000000000000.0,0.0,0.0,0.0,0.0,0.0,0.0,1000000000000.0,0.0,0.0,0.0,0.0,0.0,0.0,0.001,-7.667012104395802e-05,-6.906503589612263e-07,0.0,0.0,0.0,-0.00029748863373820893,0.0,0.0,0.0,0.0,0.0,0.0,0.0,0.0,0.0,0.0,0.0,0.0,0.0,0.0,0.0,0.0,0.0,0.0,0.0,0.0,0.0,0.0,0.0,0.0,0.0,0.0,0.0,0.0,0.0,0.0,0.0,0.0,0.0,0.0,0.0,0.0
194806000000,5832,194805000000,odom,base_footprint,1.9529997341804088,1.9698095602351025,-0.0010019483610719006,-0.0009168191649723639,0.003746573591584288,0.23542659954770692,0.9718844781425132,1e-05,0.0,0.0,0.0,0.0,0.0,0.0,1e-05,0.0,0.0,0.0,0.0,0.0,0.0,1000000000000.0,0.0,0.0,0.0,0.0,0.0,0.0,1000000000000.0,0.0,0.0,0.0,0.0,0.0,0.0,1000000000000.0,0.0,0.0,0.0,0.0,0.0,0.0,0.001,-7.666607986861839e-05,-6.908003360592006e-07,0.0,0.0,0.0,-0.00029766905292055105,0.0,0.0,0.0,0.0,0.0,0.0,0.0,0.0,0.0,0.0,0.0,0.0,0.0,0.0,0.0,0.0,0.0,0.0,0.0,0.0,0.0,0.0,0.0,0.0,0.0,0.0,0.0,0.0,0.0,0.0,0.0,0.0,0.0,0.0,0.0,0.0
194839000000,5833,194838000000,odom,base_footprint,1.9529978519594908,1.9698086018763967,-0.0010019484163302263,-0.0009168032720113255,0.0037465779166306235,0.23542245267029002,0.9718854826595467,1e-05,0.0,0.0,0.0,0.0,0.0,0.0,1e-05,0.0,0.0,0.0,0.0,0.0,0.0,1000000000000.0,0.0,0.0,0.0,0.0,0.0,0.0,1000000000000.0,0.0,0.0,0.0,0.0,0.0,0.0,1000000000000.0,0.0,0.0,0.0,0.0,0.0,0.0,0.001,-7.66621657517313e-05,-6.909430519731028e-07,0.0,0.0,0.0,-0.0002978440159768802,0.0,0.0,0.0,0.0,0.0,0.0,0.0,0.0,0.0,0.0,0.0,0.0,0.0,0.0,0.0,0.0,0.0,0.0,0.0,0.0,0.0,0.0,0.0,0.0,0.0,0.0,0.0,0.0,0.0,0.0,0.0,0.0,0.0,0.0,0.0,0.0
194872000000,5834,194871000000,odom,base_footprint,1.9529959698292207,1.9698076435872858,-0.0010019484715965525,-0.0009167873697519506,0.0037465822439488585,0.23541830338044104,0.9718864877422069,1e-05,0.0,0.0,0.0,0.0,0.0,0.0,1e-05,0.0,0.0,0.0,0.0,0.0,0.0,1000000000000.0,0.0,0.0,0.0,0.0,0.0,0.0,1000000000000.0,0.0,0.0,0.0,0.0,0.0,0.0,1000000000000.0,0.0,0.0,0.0,0.0,0.0,0.0,0.001,-7.665827052653039e-05,-6.910908869774458e-07,0.0,0.0,0.0,-0.0002980187883216098,0.0,0.0,0.0,0.0,0.0,0.0,0.0,0.0,0.0,0.0,0.0,0.0,0.0,0.0,0.0,0.0,0.0,0.0,0.0,0.0,0.0,0.0,0.0,0.0,0.0,0.0,0.0,0.0,0.0,0.0,0.0,0.0,0.0,0.0,0.0,0.0
194906000000,5835,194905000000,odom,base_footprint,1.9529940307594469,1.9698066563319176,-0.0010019485285509833,-0.0009167709758855325,0.0037465867048164475,0.23541402583155474,0.971887523873427,1e-05,0.0,0.0,0.0,0.0,0.0,0.0,1e-05,0.0,0.0,0.0,0.0,0.0,0.0,1000000000000.0,0.0,0.0,0.0,0.0,0.0,0.0,1000000000000.0,0.0,0.0,0.0,0.0,0.0,0.0,1000000000000.0,0.0,0.0,0.0,0.0,0.0,0.0,0.001,-7.665425535888416e-05,-6.912427684325581e-07,0.0,0.0,0.0,-0.00029819882373692547,0.0,0.0,0.0,0.0,0.0,0.0,0.0,0.0,0.0,0.0,0.0,0.0,0.0,0.0,0.0,0.0,0.0,0.0,0.0,0.0,0.0,0.0,0.0,0.0,0.0,0.0,0.0,0.0,0.0,0.0,0.0,0.0,0.0,0.0,0.0,0.0
194939000000,5836,194938000000,odom,base_footprint,1.9529921488130237,1.9698056981841219,-0.0010019485838418385,-0.0009167550547444053,0.003746591036815441,0.23540987164453966,0.9718885301041852,1e-05,0.0,0.0,0.0,0.0,0.0,0.0,1e-05,0.0,0.0,0.0,0.0,0.0,0.0,1000000000000.0,0.0,0.0,0.0,0.0,0.0,0.0,1000000000000.0,0.0,0.0,0.0,0.0,0.0,0.0,1000000000000.0,0.0,0.0,0.0,0.0,0.0,0.0,0.001,-7.665035511478668e-05,-6.913947328023704e-07,0.0,0.0,0.0,-0.000298373642729291,0.0,0.0,0.0,0.0,0.0,0.0,0.0,0.0,0.0,0.0,0.0,0.0,0.0,0.0,0.0,0.0,0.0,0.0,0.0,0.0,0.0,0.0,0.0,0.0,0.0,0.0,0.0,0.0,0.0,0.0,0.0,0.0,0.0,0.0,0.0,0.0
194972000000,5837,194971000000,odom,base_footprint,1.9529902669569943,1.9698047401058536,-0.001001948639135792,-0.0009167391242626397,0.0037465953710537235,0.23540571504650956,0.9718895369001279,1e-05,0.0,0.0,0.0,0.0,0.0,0.0,1e-05,0.0,0.0,0.0,0.0,0.0,0.0,1000000000000.0,0.0,0.0,0.0,0.0,0.0,0.0,1000000000000.0,0.0,0.0,0.0,0.0,0.0,0.0,1000000000000.0,0.0,0.0,0.0,0.0,0.0,0.0,0.001,-7.664645204559244e-05,-6.915442969620793e-07,0.0,0.0,0.0,-0.0002985485046033017,0.0,0.0,0.0,0.0,0.0,0.0,0.0,0.0,0.0,0.0,0.0,0.0,0.0,0.0,0.0,0.0,0.0,0.0,0.0,0.0,0.0,0.0,0.0,0.0,0.0,0.0,0.0,0.0,0.0,0.0,0.0,0.0,0.0,0.0,0.0,0.0
195006000000,5838,195005000000,odom,base_footprint,1.9529883281694826,1.9698037530675783,-0.0010019486961070495,-0.0009167227012717331,0.003746599838962928,0.23540142996987815,0.9718905747959862,1e-05,0.0,0.0,0.0,0.0,0.0,0.0,1e-05,0.0,0.0,0.0,0.0,0.0,0.0,1000000000000.0,0.0,0.0,0.0,0.0,0.0,0.0,1000000000000.0,0.0,0.0,0.0,0.0,0.0,0.0,1000000000000.0,0.0,0.0,0.0,0.0,0.0,0.0,0.001,-7.664242812363117e-05,-6.916962591008407e-07,0.0,0.0,0.0,-0.0002987286369787735,0.0,0.0,0.0,0.0,0.0,0.0,0.0,0.0,0.0,0.0,0.0,0.0,0.0,0.0,0.0,0.0,0.0,0.0,0.0,0.0,0.0,0.0,0.0,0.0,0.0,0.0,0.0,0.0,0.0,0.0,0.0,0.0,0.0,0.0,0.0,0.0
195039000000,5839,195038000000,odom,base_footprint,1.9529864464967333,1.9698027951303905,-0.001001948751404469,-0.0009167067515045708,0.0037466041778531954,0.2353972684783428,0.9718915827389397,1e-05,0.0,0.0,0.0,0.0,0.0,0.0,1e-05,0.0,0.0,0.0,0.0,0.0,0.0,1000000000000.0,0.0,0.0,0.0,0.0,0.0,0.0,1000000000000.0,0.0,0.0,0.0,0.0,0.0,0.0,1000000000000.0,0.0,0.0,0.0,0.0,0.0,0.0,0.001,-7.663853143646827e-05,-6.918567369363219e-07,0.0,0.0,0.0,-0.0002989032907359984,0.0,0.0,0.0,0.0,0.0,0.0,0.0,0.0,0.0,0.0,0.0,0.0,0.0,0.0,0.0,0.0,0.0,0.0,0.0,0.0,0.0,0.0,0.0,0.0,0.0,0.0,0.0,0.0,0.0,0.0,0.0,0.0,0.0,0.0,0.0,0.0
195072000000,5840,195071000000,odom,base_footprint,1.9529845649136042,1.9698018372625463,-0.0010019488067098611,-0.0009166907893210974,0.003746608520316595,0.23539310458390764,0.9718925912450109,1e-05,0.0,0.0,0.0,0.0,0.0,0.0,1e-05,0.0,0.0,0.0,0.0,0.0,0.0,1000000000000.0,0.0,0.0,0.0,0.0,0.0,0.0,1000000000000.0,0.0,0.0,0.0,0.0,0.0,0.0,1000000000000.0,0.0,0.0,0.0,0.0,0.0,0.0,0.001,-7.663465167359776e-05,-6.921225982115708e-07,0.0,0.0,0.0,-0.00029907697292807963,0.0,0.0,0.0,0.0,0.0,0.0,0.0,0.0,0.0,0.0,0.0,0.0,0.0,0.0,0.0,0.0,0.0,0.0,0.0,0.0,0.0,0.0,0.0,0.0,0.0,0.0,0.0,0.0,0.0,0.0,0.0,0.0,0.0,0.0,0.0,0.0
195106000000,5841,195105000000,odom,base_footprint,1.9529826264066843,1.9698008504408195,-0.0010019488637042218,-0.0009166743336673853,0.003746612996799844,0.23538881199869574,0.9718936309005534,1e-05,0.0,0.0,0.0,0.0,0.0,0.0,1e-05,0.0,0.0,0.0,0.0,0.0,0.0,1000000000000.0,0.0,0.0,0.0,0.0,0.0,0.0,1000000000000.0,0.0,0.0,0.0,0.0,0.0,0.0,1000000000000.0,0.0,0.0,0.0,0.0,0.0,0.0,0.001,-7.663065814566433e-05,-6.923986295276951e-07,0.0,0.0,0.0,-0.0002992558884703584,0.0,0.0,0.0,0.0,0.0,0.0,0.0,0.0,0.0,0.0,0.0,0.0,0.0,0.0,0.0,0.0,0.0,0.0,0.0,0.0,0.0,0.0,0.0,0.0,0.0,0.0,0.0,0.0,0.0,0.0,0.0,0.0,0.0,0.0,0.0,0.0
195139000000,5842,195138000000,odom,base_footprint,1.952980745005697,1.969799892713512,-0.0010019489190322972,-0.0009166583525982651,0.003746617343935066,0.23538464322827163,0.9718946405491914,1e-05,0.0,0.0,0.0,0.0,0.0,0.0,1e-05,0.0,0.0,0.0,0.0,0.0,0.0,1000000000000.0,0.0,0.0,0.0,0.0,0.0,0.0,1000000000000.0,0.0,0.0,0.0,0.0,0.0,0.0,1000000000000.0,0.0,0.0,0.0,0.0,0.0,0.0,0.001,-7.662677492424366e-05,-6.926667296975402e-07,0.0,0.0,0.0,-0.00029942956503296376,0.0,0.0,0.0,0.0,0.0,0.0,0.0,0.0,0.0,0.0,0.0,0.0,0.0,0.0,0.0,0.0,0.0,0.0,0.0,0.0,0.0,0.0,0.0,0.0,0.0,0.0,0.0,0.0,0.0,0.0,0.0,0.0,0.0,0.0,0.0,0.0
195172000000,5843,195171000000,odom,base_footprint,1.9529788636943428,1.9697989350552036,-0.0010019489743635021,-0.0009166423623919746,0.0037466216932405365,0.23538047205726134,0.9718956507602903,1e-05,0.0,0.0,0.0,0.0,0.0,0.0,1e-05,0.0,0.0,0.0,0.0,0.0,0.0,1000000000000.0,0.0,0.0,0.0,0.0,0.0,0.0,1000000000000.0,0.0,0.0,0.0,0.0,0.0,0.0,1000000000000.0,0.0,0.0,0.0,0.0,0.0,0.0,0.001,-7.662289442433193e-05,-6.928927533929259e-07,0.0,0.0,0.0,-0.0002996034023476314,0.0,0.0,0.0,0.0,0.0,0.0,0.0,0.0,0.0,0.0,0.0,0.0,0.0,0.0,0.0,0.0,0.0,0.0,0.0,0.0,0.0,0.0,0.0,0.0,0.0,0.0,0.0,0.0,0.0,0.0,0.0,0.0,0.0,0.0,0.0,0.0
195206000000,5844,195205000000,odom,base_footprint,1.9529769254675422,1.9697979484484214,-0.0010019490313303292,-0.000916625878581617,0.0037466261760040784,0.23537617197618366,0.971896692172133,1e-05,0.0,0.0,0.0,0.0,0.0,0.0,1e-05,0.0,0.0,0.0,0.0,0.0,0.0,1000000000000.0,0.0,0.0,0.0,0.0,0.0,0.0,1000000000000.0,0.0,0.0,0.0,0.0,0.0,0.0,1000000000000.0,0.0,0.0,0.0,0.0,0.0,0.0,0.001,-7.661891455472721e-05,-6.928382474913637e-07,0.0,0.0,0.0,-0.0002997827825015738,0.0,0.0,0.0,0.0,0.0,0.0,0.0,0.0,0.0,0.0,0.0,0.0,0.0,0.0,0.0,0.0,0.0,0.0,0.0,0.0,0.0,0.0,0.0,0.0,0.0,0.0,0.0,0.0,0.0,0.0,0.0,0.0,0.0,0.0,0.0,0.0
195239000000,5845,195238000000,odom,base_footprint,1.952975044337939,1.9697969909293997,-0.001001949086622548,-0.0009166098701341558,0.003746630529182511,0.23537199593367966,0.9718977035245117,1e-05,0.0,0.0,0.0,0.0,0.0,0.0,1e-05,0.0,0.0,0.0,0.0,0.0,0.0,1000000000000.0,0.0,0.0,0.0,0.0,0.0,0.0,1000000000000.0,0.0,0.0,0.0,0.0,0.0,0.0,1000000000000.0,0.0,0.0,0.0,0.0,0.0,0.0,0.001,-7.661505307079584e-05,-6.927812559379601e-07,0.0,0.0,0.0,-0.00029995685548130443,0.0,0.0,0.0,0.0,0.0,0.0,0.0,0.0,0.0,0.0,0.0,0.0,0.0,0.0,0.0,0.0,0.0,0.0,0.0,0.0,0.0,0.0,0.0,0.0,0.0,0.0,0.0,0.0,0.0,0.0,0.0,0.0,0.0,0.0,0.0,0.0
195272000000,5846,195271000000,odom,base_footprint,1.9529731632974632,1.9697960334792244,-0.0010019491419168795,-0.000916593852417468,0.0037466348845728178,0.23536781749343233,0.9718987154385635,1e-05,0.0,0.0,0.0,0.0,0.0,0.0,1e-05,0.0,0.0,0.0,0.0,0.0,0.0,1000000000000.0,0.0,0.0,0.0,0.0,0.0,0.0,1000000000000.0,0.0,0.0,0.0,0.0,0.0,0.0,1000000000000.0,0.0,0.0,0.0,0.0,0.0,0.0,0.001,-7.66111983594735e-05,-6.927253134707148e-07,0.0,0.0,0.0,-0.00030013083818606755,0.0,0.0,0.0,0.0,0.0,0.0,0.0,0.0,0.0,0.0,0.0,0.0,0.0,0.0,0.0,0.0,0.0,0.0,0.0,0.0,0.0,0.0,0.0,0.0,0.0,0.0,0.0,0.0,0.0,0.0,0.0,0.0,0.0,0.0,0.0,0.0
195306000000,5847,195305000000,odom,base_footprint,1.9529712253489413,1.969795047087414,-0.001001949198893827,-0.000916577339640429,0.003746639374294547,0.23536350992610716,0.9718997586040665,1e-05,0.0,0.0,0.0,0.0,0.0,0.0,1e-05,0.0,0.0,0.0,0.0,0.0,0.0,1000000000000.0,0.0,0.0,0.0,0.0,0.0,0.0,1000000000000.0,0.0,0.0,0.0,0.0,0.0,0.0,1000000000000.0,0.0,0.0,0.0,0.0,0.0,0.0,0.001,-7.660723332690442e-05,-6.9266903209194e-07,0.0,0.0,0.0,-0.0003003100101660587,0.0,0.0,0.0,0.0,0.0,0.0,0.0,0.0,0.0,0.0,0.0,0.0,0.0,0.0,0.0,0.0,0.0,0.0,0.0,0.0,0.0,0.0,0.0,0.0,0.0,0.0,0.0,0.0,0.0,0.0,0.0,0.0,0.0,0.0,0.0,0.0
195339000000,5848,195338000000,odom,base_footprint,1.952969344489277,1.9697940897769988,-0.0010019492542026782,-0.0009165613031421778,0.0037466437342543275,0.23535932661836645,0.9719007716582261,1e-05,0.0,0.0,0.0,0.0,0.0,0.0,1e-05,0.0,0.0,0.0,0.0,0.0,0.0,1000000000000.0,0.0,0.0,0.0,0.0,0.0,0.0,1000000000000.0,0.0,0.0,0.0,0.0,0.0,0.0,1000000000000.0,0.0,0.0,0.0,0.0,0.0,0.0,0.001,-7.660338828246809e-05,-6.926150253970786e-07,0.0,0.0,0.0,-0.0003004838700102419,0.0,0.0,0.0,0.0,0.0,0.0,0.0,0.0,0.0,0.0,0.0,0.0,0.0,0.0,0.0,0.0,0.0,0.0,0.0,0.0,0.0,0.0,0.0,0.0,0.0,0.0,0.0,0.0,0.0,0.0,0.0,0.0,0.0,0.0,0.0,0.0
195372000000,5849,195371000000,odom,base_footprint,1.9529674637185575,1.9697931325353886,-0.0010019493095187598,-0.0009165452573857235,0.003746648096467929,0.23535514091380708,0.9719017852737356,1e-05,0.0,0.0,0.0,0.0,0.0,0.0,1e-05,0.0,0.0,0.0,0.0,0.0,0.0,1000000000000.0,0.0,0.0,0.0,0.0,0.0,0.0,1000000000000.0,0.0,0.0,0.0,0.0,0.0,0.0,1000000000000.0,0.0,0.0,0.0,0.0,0.0,0.0,0.001,-7.659954269052722e-05,-6.92560851206717e-07,0.0,0.0,0.0,-0.00030065773411768945,0.0,0.0,0.0,0.0,0.0,0.0,0.0,0.0,0.0,0.0,0.0,0.0,0.0,0.0,0.0,0.0,0.0,0.0,0.0,0.0,0.0,0.0,0.0,0.0,0.0,0.0,0.0,0.0,0.0,0.0,0.0,0.0,0.0,0.0,0.0,0.0
195406000000,5850,195405000000,odom,base_footprint,1.9529655260477239,1.96979214635838,-0.0010019493665159654,-0.0009165287157011367,0.0037466525932060724,0.23535082586341763,0.9719028301918183,1e-05,0.0,0.0,0.0,0.0,0.0,0.0,1e-05,0.0,0.0,0.0,0.0,0.0,0.0,1000000000000.0,0.0,0.0,0.0,0.0,0.0,0.0,1000000000000.0,0.0,0.0,0.0,0.0,0.0,0.0,1000000000000.0,0.0,0.0,0.0,0.0,0.0,0.0,0.001,-7.6595585664397e-05,-6.925045339123696e-07,0.0,0.0,0.0,-0.00030083686773202053,0.0,0.0,0.0,0.0,0.0,0.0,0.0,0.0,0.0,0.0,0.0,0.0,0.0,0.0,0.0,0.0,0.0,0.0,0.0,0.0,0.0,0.0,0.0,0.0,0.0,0.0,0.0,0.0,0.0,0.0,0.0,0.0,0.0,0.0,0.0,0.0
195439000000,5851,195438000000,odom,base_footprint,1.9529636454573438,1.9697911892563524,-0.0010019494218409357,-0.0009165126511303505,0.0037466569599494673,0.23534663529413005,0.971903844946565,1e-05,0.0,0.0,0.0,0.0,0.0,0.0,1e-05,0.0,0.0,0.0,0.0,0.0,0.0,1000000000000.0,0.0,0.0,0.0,0.0,0.0,0.0,1000000000000.0,0.0,0.0,0.0,0.0,0.0,0.0,1000000000000.0,0.0,0.0,0.0,0.0,0.0,0.0,0.001,-7.659174217062984e-05,-6.92448131476432e-07,0.0,0.0,0.0,-0.00030101071316594936,0.0,0.0,0.0,0.0,0.0,0.0,0.0,0.0,0.0,0.0,0.0,0.0,0.0,0.0,0.0,0.0,0.0,0.0,0.0,0.0,0.0,0.0,0.0,0.0,0.0,0.0,0.0,0.0,0.0,0.0,0.0,0.0,0.0,0.0,0.0,0.0
195472000000,5852,195471000000,odom,base_footprint,1.9529617649556894,1.9697902322230316,-0.0010019494771701283,-0.0009164965772980425,0.003746661328920857,0.23534244232939652,0.9719048602622301,1e-05,0.0,0.0,0.0,0.0,0.0,0.0,1e-05,0.0,0.0,0.0,0.0,0.0,0.0,1000000000000.0,0.0,0.0,0.0,0.0,0.0,0.0,1000000000000.0,0.0,0.0,0.0,0.0,0.0,0.0,1000000000000.0,0.0,0.0,0.0,0.0,0.0,0.0,0.001,-7.658790161894818e-05,-6.923930021009817e-07,0.0,0.0,0.0,-0.00030118451094069055,0.0,0.0,0.0,0.0,0.0,0.0,0.0,0.0,0.0,0.0,0.0,0.0,0.0,0.0,0.0,0.0,0.0,0.0,0.0,0.0,0.0,0.0,0.0,0.0,0.0,0.0,0.0,0.0,0.0,0.0,0.0,0.0,0.0,0.0,0.0,0.0
195506000000,5853,195505000000,odom,base_footprint,1.9529598275618756,1.969789246260542,-0.0010019495341818917,-0.0009164800067009058,0.0037466658326269515,0.23533811980004668,0.9719059069315891,1e-05,0.0,0.0,0.0,0.0,0.0,0.0,1e-05,0.0,0.0,0.0,0.0,0.0,0.0,1000000000000.0,0.0,0.0,0.0,0.0,0.0,0.0,1000000000000.0,0.0,0.0,0.0,0.0,0.0,0.0,1000000000000.0,0.0,0.0,0.0,0.0,0.0,0.0,0.001,-7.658394945398662e-05,-6.923345621405913e-07,0.0,0.0,0.0,-0.0003013635279207884,0.0,0.0,0.0,0.0,0.0,0.0,0.0,0.0,0.0,0.0,0.0,0.0,0.0,0.0,0.0,0.0,0.0,0.0,0.0,0.0,0.0,0.0,0.0,0.0,0.0,0.0,0.0,0.0,0.0,0.0,0.0,0.0,0.0,0.0,0.0,0.0
195539000000,5854,195538000000,odom,base_footprint,1.9529579472401746,1.9697882893666523,-0.0010019495895229012,-0.0009164639140813069,0.003746670206145979,0.2353339219729253,0.971906923385723,1e-05,0.0,0.0,0.0,0.0,0.0,0.0,1e-05,0.0,0.0,0.0,0.0,0.0,0.0,1000000000000.0,0.0,0.0,0.0,0.0,0.0,0.0,1000000000000.0,0.0,0.0,0.0,0.0,0.0,0.0,1000000000000.0,0.0,0.0,0.0,0.0,0.0,0.0,0.001,-7.658011561825412e-05,-6.922794919618275e-07,0.0,0.0,0.0,-0.00030153724136818997,0.0,0.0,0.0,0.0,0.0,0.0,0.0,0.0,0.0,0.0,0.0,0.0,0.0,0.0,0.0,0.0,0.0,0.0,0.0,0.0,0.0,0.0,0.0,0.0,0.0,0.0,0.0,0.0,0.0,0.0,0.0,0.0,0.0,0.0,0.0,0.0
195572000000,5855,195571000000,odom,base_footprint,1.9529560670070039,1.9697873325414021,-0.0010019496448700205,-0.0009164478122081906,0.0037466745819073376,0.23532972175150887,0.9719079404003974,1e-05,0.0,0.0,0.0,0.0,0.0,0.0,1e-05,0.0,0.0,0.0,0.0,0.0,0.0,1000000000000.0,0.0,0.0,0.0,0.0,0.0,0.0,1000000000000.0,0.0,0.0,0.0,0.0,0.0,0.0,1000000000000.0,0.0,0.0,0.0,0.0,0.0,0.0,0.001,-7.65762875494391e-05,-6.922263057769604e-07,0.0,0.0,0.0,-0.00030171093461606494,0.0,0.0,0.0,0.0,0.0,0.0,0.0,0.0,0.0,0.0,0.0,0.0,0.0,0.0,0.0,0.0,0.0,0.0,0.0,0.0,0.0,0.0,0.0,0.0,0.0,0.0,0.0,0.0,0.0,0.0,0.0,0.0,0.0,0.0,0.0,0.0
195606000000,5856,195605000000,odom,base_footprint,1.9529541298895872,1.9697863467932082,-0.001001949701899884,-0.0009164312127185332,0.00374667909260644,0.23532539174691358,0.9719089888198231,1e-05,0.0,0.0,0.0,0.0,0.0,0.0,1e-05,0.0,0.0,0.0,0.0,0.0,0.0,1000000000000.0,0.0,0.0,0.0,0.0,0.0,0.0,1000000000000.0,0.0,0.0,0.0,0.0,0.0,0.0,1000000000000.0,0.0,0.0,0.0,0.0,0.0,0.0,0.001,-7.657234075992338e-05,-6.92168959563645e-07,0.0,0.0,0.0,-0.00030188987076118517,0.0,0.0,0.0,0.0,0.0,0.0,0.0,0.0,0.0,0.0,0.0,0.0,0.0,0.0,0.0,0.0,0.0,0.0,0.0,0.0,0.0,0.0,0.0,0.0,0.0,0.0,0.0,0.0,0.0,0.0,0.0,0.0,0.0,0.0,0.0,0.0
195639000000,5857,195638000000,odom,base_footprint,1.9529522498359373,1.969785390107228,-0.0010019497572575434,-0.0009164150920547413,0.003746683472905106,0.23532118666573654,0.9719100069721283,1e-05,0.0,0.0,0.0,0.0,0.0,0.0,1e-05,0.0,0.0,0.0,0.0,0.0,0.0,1000000000000.0,0.0,0.0,0.0,0.0,0.0,0.0,1000000000000.0,0.0,0.0,0.0,0.0,0.0,0.0,1000000000000.0,0.0,0.0,0.0,0.0,0.0,0.0,0.001,-7.656851656803588e-05,-6.921145841710558e-07,0.0,0.0,0.0,-0.00030206351693869675,0.0,0.0,0.0,0.0,0.0,0.0,0.0,0.0,0.0,0.0,0.0,0.0,0.0,0.0,0.0,0.0,0.0,0.0,0.0,0.0,0.0,0.0,0.0,0.0,0.0,0.0,0.0,0.0,0.0,0.0,0.0,0.0,0.0,0.0,0.0,0.0
195672000000,5858,195671000000,odom,base_footprint,1.952950369870606,1.9697844334898011,-0.0010019498126202682,-0.0009163989621377604,0.0037466878554369685,0.23531697919158912,0.9719110256845538,1e-05,0.0,0.0,0.0,0.0,0.0,0.0,1e-05,0.0,0.0,0.0,0.0,0.0,0.0,1000000000000.0,0.0,0.0,0.0,0.0,0.0,0.0,1000000000000.0,0.0,0.0,0.0,0.0,0.0,0.0,1000000000000.0,0.0,0.0,0.0,0.0,0.0,0.0,0.001,-7.656469008160543e-05,-6.920594212639903e-07,0.0,0.0,0.0,-0.0003022371285591673,0.0,0.0,0.0,0.0,0.0,0.0,0.0,0.0,0.0,0.0,0.0,0.0,0.0,0.0,0.0,0.0,0.0,0.0,0.0,0.0,0.0,0.0,0.0,0.0,0.0,0.0,0.0,0.0,0.0,0.0,0.0,0.0,0.0,0.0,0.0,0.0
195706000000,5859,195705000000,odom,base_footprint,1.9529484330289324,1.9697834479556435,-0.0010019498696662577,-0.0009163823337611897,0.0037466923731099074,0.2353126417158156,0.9719120758527512,1e-05,0.0,0.0,0.0,0.0,0.0,0.0,1e-05,0.0,0.0,0.0,0.0,0.0,0.0,1000000000000.0,0.0,0.0,0.0,0.0,0.0,0.0,1000000000000.0,0.0,0.0,0.0,0.0,0.0,0.0,1000000000000.0,0.0,0.0,0.0,0.0,0.0,0.0,0.001,-7.656075157615149e-05,-6.920006043335044e-07,0.0,0.0,0.0,-0.0003024159634501828,0.0,0.0,0.0,0.0,0.0,0.0,0.0,0.0,0.0,0.0,0.0,0.0,0.0,0.0,0.0,0.0,0.0,0.0,0.0,0.0,0.0,0.0,0.0,0.0,0.0,0.0,0.0,0.0,0.0,0.0,0.0,0.0,0.0,0.0,0.0,0.0
195739000000,5860,195738000000,odom,base_footprint,1.9529465532427122,1.969782491477327,-0.001001949925040161,-0.000916366185066429,0.0037466967601807446,0.23530842938447108,0.9719130957019847,1e-05,0.0,0.0,0.0,0.0,0.0,0.0,1e-05,0.0,0.0,0.0,0.0,0.0,0.0,1000000000000.0,0.0,0.0,0.0,0.0,0.0,0.0,1000000000000.0,0.0,0.0,0.0,0.0,0.0,0.0,1000000000000.0,0.0,0.0,0.0,0.0,0.0,0.0,0.001,-7.6556935874545e-05,-6.919448522589504e-07,0.0,0.0,0.0,-0.000302589504881649,0.0,0.0,0.0,0.0,0.0,0.0,0.0,0.0,0.0,0.0,0.0,0.0,0.0,0.0,0.0,0.0,0.0,0.0,0.0,0.0,0.0,0.0,0.0,0.0,0.0,0.0,0.0,0.0,0.0,0.0,0.0,0.0,0.0,0.0,0.0,0.0
195772000000,5861,195771000000,odom,base_footprint,1.9529446735446077,1.9697815350674877,-0.0010019499804197855,-0.0009163500271259815,0.0037467011494880685,0.23530421466141072,0.9719141161109355,1e-05,0.0,0.0,0.0,0.0,0.0,0.0,1e-05,0.0,0.0,0.0,0.0,0.0,0.0,1000000000000.0,0.0,0.0,0.0,0.0,0.0,0.0,1000000000000.0,0.0,0.0,0.0,0.0,0.0,0.0,1000000000000.0,0.0,0.0,0.0,0.0,0.0,0.0,0.001,-7.655312130987963e-05,-6.91890947633775e-07,0.0,0.0,0.0,-0.00030276301800754966,0.0,0.0,0.0,0.0,0.0,0.0,0.0,0.0,0.0,0.0,0.0,0.0,0.0,0.0,0.0,0.0,0.0,0.0,0.0,0.0,0.0,0.0,0.0,0.0,0.0,0.0,0.0,0.0,0.0,0.0,0.0,0.0,0.0,0.0,0.0,0.0
195806000000,5862,195805000000,odom,base_footprint,1.9529427369780425,1.9697805497471266,-0.0010019500374832575,-0.0009163333698799655,0.0037467056741415567,0.23529986971840292,0.9719151680266387,1e-05,0.0,0.0,0.0,0.0,0.0,0.0,1e-05,0.0,0.0,0.0,0.0,0.0,0.0,1000000000000.0,0.0,0.0,0.0,0.0,0.0,0.0,1000000000000.0,0.0,0.0,0.0,0.0,0.0,0.0,1000000000000.0,0.0,0.0,0.0,0.0,0.0,0.0,0.001,-7.654918927214936e-05,-6.918330085902585e-07,0.0,0.0,0.0,-0.0003029417581636623,0.0,0.0,0.0,0.0,0.0,0.0,0.0,0.0,0.0,0.0,0.0,0.0,0.0,0.0,0.0,0.0,0.0,0.0,0.0,0.0,0.0,0.0,0.0,0.0,0.0,0.0,0.0,0.0,0.0,0.0,0.0,0.0,0.0,0.0,0.0,0.0
195838000000,5863,195838000000,odom,base_footprint,1.9529408574586278,1.9697795934762372,-0.0010019500928739739,-0.0009163171931678658,0.0037467100679851604,0.23529565014078255,0.9719161895715569,1e-05,0.0,0.0,0.0,0.0,0.0,0.0,1e-05,0.0,0.0,0.0,0.0,0.0,0.0,1000000000000.0,0.0,0.0,0.0,0.0,0.0,0.0,1000000000000.0,0.0,0.0,0.0,0.0,0.0,0.0,1000000000000.0,0.0,0.0,0.0,0.0,0.0,0.0,0.001,-7.654537826507693e-05,-6.917802247169034e-07,0.0,0.0,0.0,-0.0003031152129692526,0.0,0.0,0.0,0.0,0.0,0.0,0.0,0.0,0.0,0.0,0.0,0.0,0.0,0.0,0.0,0.0,0.0,0.0,0.0,0.0,0.0,0.0,0.0,0.0,0.0,0.0,0.0,0.0,0.0,0.0,0.0,0.0,0.0,0.0,0.0,0.0
195872000000,5864,195871000000,odom,base_footprint,1.9529389780271198,1.9697786372737447,-0.0010019501482699394,-0.0009163010072119342,0.003746714464060538,0.23529142817276888,0.9719172116757722,1e-05,0.0,0.0,0.0,0.0,0.0,0.0,1e-05,0.0,0.0,0.0,0.0,0.0,0.0,1000000000000.0,0.0,0.0,0.0,0.0,0.0,0.0,1000000000000.0,0.0,0.0,0.0,0.0,0.0,0.0,1000000000000.0,0.0,0.0,0.0,0.0,0.0,0.0,0.001,-7.654156784555785e-05,-6.917207518162391e-07,0.0,0.0,0.0,-0.0003032886364361285,0.0,0.0,0.0,0.0,0.0,0.0,0.0,0.0,0.0,0.0,0.0,0.0,0.0,0.0,0.0,0.0,0.0,0.0,0.0,0.0,0.0,0.0,0.0,0.0,0.0,0.0,0.0,0.0,0.0,0.0,0.0,0.0,0.0,0.0,0.0,0.0
195906000000,5865,195905000000,odom,base_footprint,1.952937041735015,1.9697776521669295,-0.0010019502053502452,-0.000916284321106167,0.0037467189956856685,0.23528707576663374,0.9719182653376757,1e-05,0.0,0.0,0.0,0.0,0.0,0.0,1e-05,0.0,0.0,0.0,0.0,0.0,0.0,1000000000000.0,0.0,0.0,0.0,0.0,0.0,0.0,1000000000000.0,0.0,0.0,0.0,0.0,0.0,0.0,1000000000000.0,0.0,0.0,0.0,0.0,0.0,0.0,0.001,-7.653764642165647e-05,-6.916654407386556e-07,0.0,0.0,0.0,-0.000303467281478706,0.0,0.0,0.0,0.0,0.0,0.0,0.0,0.0,0.0,0.0,0.0,0.0,0.0,0.0,0.0,0.0,0.0,0.0,0.0,0.0,0.0,0.0,0.0,0.0,0.0,0.0,0.0,0.0,0.0,0.0,0.0,0.0,0.0,0.0,0.0,0.0
195939000000,5866,195938000000,odom,base_footprint,1.9529351624817801,1.969776696103225,-0.001001950260757379,-0.0009162681163889435,0.0037467233962950597,0.23528284894670348,0.9719192885770163,1e-05,0.0,0.0,0.0,0.0,0.0,0.0,1e-05,0.0,0.0,0.0,0.0,0.0,0.0,1000000000000.0,0.0,0.0,0.0,0.0,0.0,0.0,1000000000000.0,0.0,0.0,0.0,0.0,0.0,0.0,1000000000000.0,0.0,0.0,0.0,0.0,0.0,0.0,0.001,-7.653384332302768e-05,-6.916113431555598e-07,0.0,0.0,0.0,-0.00030364063797817776,0.0,0.0,0.0,0.0,0.0,0.0,0.0,0.0,0.0,0.0,0.0,0.0,0.0,0.0,0.0,0.0,0.0,0.0,0.0,0.0,0.0,0.0,0.0,0.0,0.0,0.0,0.0,0.0,0.0,0.0,0.0,0.0,0.0,0.0,0.0,0.0
195972000000,5867,195971000000,odom,base_footprint,1.9529332833162483,1.9697757401078402,-0.0010019503161700985,-0.000916251902432992,0.003746727799137378,0.2352786197376796,0.9719203123752395,1e-05,0.0,0.0,0.0,0.0,0.0,0.0,1e-05,0.0,0.0,0.0,0.0,0.0,0.0,1000000000000.0,0.0,0.0,0.0,0.0,0.0,0.0,1000000000000.0,0.0,0.0,0.0,0.0,0.0,0.0,1000000000000.0,0.0,0.0,0.0,0.0,0.0,0.0,0.001,-7.653004358289336e-05,-6.915548099346248e-07,0.0,0.0,0.0,-0.00030381396433118115,0.0,0.0,0.0,0.0,0.0,0.0,0.0,0.0,0.0,0.0,0.0,0.0,0.0,0.0,0.0,0.0,0.0,0.0,0.0,0.0,0.0,0.0,0.0,0.0,0.0,0.0,0.0,0.0,0.0,0.0,0.0,0.0,0.0,0.0,0.0,0.0
196006000000,5868,196005000000,odom,base_footprint,1.9529313472979632,1.9697747552143243,-0.0010019503732677688,-0.0009162351874841842,0.0037467323377337984,0.23527425987248662,0.9719213677820466,1e-05,0.0,0.0,0.0,0.0,0.0,0.0,1e-05,0.0,0.0,0.0,0.0,0.0,0.0,1000000000000.0,0.0,0.0,0.0,0.0,0.0,0.0,1000000000000.0,0.0,0.0,0.0,0.0,0.0,0.0,1000000000000.0,0.0,0.0,0.0,0.0,0.0,0.0,0.001,-7.652612971878456e-05,-6.914983715185097e-07,0.0,0.0,0.0,-0.00030399251247345083,0.0,0.0,0.0,0.0,0.0,0.0,0.0,0.0,0.0,0.0,0.0,0.0,0.0,0.0,0.0,0.0,0.0,0.0,0.0,0.0,0.0,0.0,0.0,0.0,0.0,0.0,0.0,0.0,0.0,0.0,0.0,0.0,0.0,0.0,0.0,0.0
196039000000,5869,196038000000,odom,base_footprint,1.9529294683102847,1.9697737993575661,-0.001001950428691608,-0.0009162189547754047,0.003746736745106868,0.2352700258142299,0.9719223927145426,1e-05,0.0,0.0,0.0,0.0,0.0,0.0,1e-05,0.0,0.0,0.0,0.0,0.0,0.0,1000000000000.0,0.0,0.0,0.0,0.0,0.0,0.0,1000000000000.0,0.0,0.0,0.0,0.0,0.0,0.0,1000000000000.0,0.0,0.0,0.0,0.0,0.0,0.0,0.001,-7.652232985966355e-05,-6.914408570168307e-07,0.0,0.0,0.0,-0.00030416577650072723,0.0,0.0,0.0,0.0,0.0,0.0,0.0,0.0,0.0,0.0,0.0,0.0,0.0,0.0,0.0,0.0,0.0,0.0,0.0,0.0,0.0,0.0,0.0,0.0,0.0,0.0,0.0,0.0,0.0,0.0,0.0,0.0,0.0,0.0,0.0,0.0
196072000000,5870,196071000000,odom,base_footprint,1.9529275894101024,1.9697728435690465,-0.0010019504841209635,-0.0009162027128327533,0.003746741154711068,0.2352657893682031,0.9719234182055008,1e-05,0.0,0.0,0.0,0.0,0.0,0.0,1e-05,0.0,0.0,0.0,0.0,0.0,0.0,1000000000000.0,0.0,0.0,0.0,0.0,0.0,0.0,1000000000000.0,0.0,0.0,0.0,0.0,0.0,0.0,1000000000000.0,0.0,0.0,0.0,0.0,0.0,0.0,0.001,-7.651853638692434e-05,-6.913851159181161e-07,0.0,0.0,0.0,-0.00030433900950982515,0.0,0.0,0.0,0.0,0.0,0.0,0.0,0.0,0.0,0.0,0.0,0.0,0.0,0.0,0.0,0.0,0.0,0.0,0.0,0.0,0.0,0.0,0.0,0.0,0.0,0.0,0.0,0.0,0.0,0.0,0.0,0.0,0.0,0.0,0.0,0.0
196106000000,5871,196105000000,odom,base_footprint,1.9529256536649928,1.969771858888583,-0.0010019505412357174,-0.0009161859690537871,0.0037467457002721537,0.2352614220480871,0.9719244753558989,1e-05,0.0,0.0,0.0,0.0,0.0,0.0,1e-05,0.0,0.0,0.0,0.0,0.0,0.0,1000000000000.0,0.0,0.0,0.0,0.0,0.0,0.0,1000000000000.0,0.0,0.0,0.0,0.0,0.0,0.0,1000000000000.0,0.0,0.0,0.0,0.0,0.0,0.0,0.001,-7.651463044024892e-05,-6.913274741607346e-07,0.0,0.0,0.0,-0.0003045174582338665,0.0,0.0,0.0,0.0,0.0,0.0,0.0,0.0,0.0,0.0,0.0,0.0,0.0,0.0,0.0,0.0,0.0,0.0,0.0,0.0,0.0,0.0,0.0,0.0,0.0,0.0,0.0,0.0,0.0,0.0,0.0,0.0,0.0,0.0,0.0,0.0
196139000000,5872,196138000000,odom,base_footprint,1.952923774942246,1.9697709032385298,-0.0010019505966763105,-0.0009161697083683077,0.0037467501144048208,0.23525718075551147,0.9719255019802776,1e-05,0.0,0.0,0.0,0.0,0.0,0.0,1e-05,0.0,0.0,0.0,0.0,0.0,0.0,1000000000000.0,0.0,0.0,0.0,0.0,0.0,0.0,1000000000000.0,0.0,0.0,0.0,0.0,0.0,0.0,1000000000000.0,0.0,0.0,0.0,0.0,0.0,0.0,0.001,-7.651084200023535e-05,-6.912708858150852e-07,0.0,0.0,0.0,-0.0003046906273966579,0.0,0.0,0.0,0.0,0.0,0.0,0.0,0.0,0.0,0.0,0.0,0.0,0.0,0.0,0.0,0.0,0.0,0.0,0.0,0.0,0.0,0.0,0.0,0.0,0.0,0.0,0.0,0.0,0.0,0.0,0.0,0.0,0.0,0.0,0.0,0.0
196172000000,5873,196171000000,odom,base_footprint,1.952921896306789,1.9697699476566364,-0.0010019506521223472,-0.0009161534384534169,0.0037467545307665745,0.23525293707649597,0.9719265291626964,1e-05,0.0,0.0,0.0,0.0,0.0,0.0,1e-05,0.0,0.0,0.0,0.0,0.0,0.0,1000000000000.0,0.0,0.0,0.0,0.0,0.0,0.0,1000000000000.0,0.0,0.0,0.0,0.0,0.0,0.0,1000000000000.0,0.0,0.0,0.0,0.0,0.0,0.0,0.001,-7.650705494795923e-05,-6.912159325703649e-07,0.0,0.0,0.0,-0.0003048637648845342,0.0,0.0,0.0,0.0,0.0,0.0,0.0,0.0,0.0,0.0,0.0,0.0,0.0,0.0,0.0,0.0,0.0,0.0,0.0,0.0,0.0,0.0,0.0,0.0,0.0,0.0,0.0,0.0,0.0,0.0,0.0,0.0,0.0,0.0,0.0,0.0
196206000000,5874,196205000000,odom,base_footprint,1.952919960834212,1.9697689631889763,-0.0010019507092543685,-0.0009161366658598857,0.0037467590832890893,0.23524856230560479,0.9719275880553692,1e-05,0.0,0.0,0.0,0.0,0.0,0.0,1e-05,0.0,0.0,0.0,0.0,0.0,0.0,1000000000000.0,0.0,0.0,0.0,0.0,0.0,0.0,1000000000000.0,0.0,0.0,0.0,0.0,0.0,0.0,1000000000000.0,0.0,0.0,0.0,0.0,0.0,0.0,0.001,-7.650315557082682e-05,-6.911588863852539e-07,0.0,0.0,0.0,-0.00030504211559787995,0.0,0.0,0.0,0.0,0.0,0.0,0.0,0.0,0.0,0.0,0.0,0.0,0.0,0.0,0.0,0.0,0.0,0.0,0.0,0.0,0.0,0.0,0.0,0.0,0.0,0.0,0.0,0.0,0.0,0.0,0.0,0.0,0.0,0.0,0.0,0.0
196239000000,5875,196238000000,odom,base_footprint,1.9529180823757724,1.9697680077453883,-0.0010019507647116843,-0.0009161203772117813,0.0037467635041765267,0.23524431378273988,0.9719286163703514,1e-05,0.0,0.0,0.0,0.0,0.0,0.0,1e-05,0.0,0.0,0.0,0.0,0.0,0.0,1000000000000.0,0.0,0.0,0.0,0.0,0.0,0.0,1000000000000.0,0.0,0.0,0.0,0.0,0.0,0.0,1000000000000.0,0.0,0.0,0.0,0.0,0.0,0.0,0.001,-7.649937453176487e-05,-6.911010933689774e-07,0.0,0.0,0.0,-0.0003052151896546744,0.0,0.0,0.0,0.0,0.0,0.0,0.0,0.0,0.0,0.0,0.0,0.0,0.0,0.0,0.0,0.0,0.0,0.0,0.0,0.0,0.0,0.0,0.0,0.0,0.0,0.0,0.0,0.0,0.0,0.0,0.0,0.0,0.0,0.0,0.0,0.0
196272000000,5876,196271000000,odom,base_footprint,1.952916204004418,1.9697670523698803,-0.0010019508201745027,-0.0009161040793389301,0.003746767927292299,0.23524006287476806,0.9719296452429518,1e-05,0.0,0.0,0.0,0.0,0.0,0.0,1e-05,0.0,0.0,0.0,0.0,0.0,0.0,1000000000000.0,0.0,0.0,0.0,0.0,0.0,0.0,1000000000000.0,0.0,0.0,0.0,0.0,0.0,0.0,1000000000000.0,0.0,0.0,0.0,0.0,0.0,0.0,0.001,-7.649559790420921e-05,-6.91048862534174e-07,0.0,0.0,0.0,-0.00030538823298242466,0.0,0.0,0.0,0.0,0.0,0.0,0.0,0.0,0.0,0.0,0.0,0.0,0.0,0.0,0.0,0.0,0.0,0.0,0.0,0.0,0.0,0.0,0.0,0.0,0.0,0.0,0.0,0.0,0.0,0.0,0.0,0.0,0.0,0.0,0.0,0.0
196306000000,5877,196305000000,odom,base_footprint,1.9529142688037309,1.969766068114779,-0.0010019508773238019,-0.0009160872779447321,0.003746772486771896,0.2352356806572512,0.9719307058765823,1e-05,0.0,0.0,0.0,0.0,0.0,0.0,1e-05,0.0,0.0,0.0,0.0,0.0,0.0,1000000000000.0,0.0,0.0,0.0,0.0,0.0,0.0,1000000000000.0,0.0,0.0,0.0,0.0,0.0,0.0,1000000000000.0,0.0,0.0,0.0,0.0,0.0,0.0,0.001,-7.64917071837256e-05,-6.909886335495122e-07,0.0,0.0,0.0,-0.0003055664858501074,0.0,0.0,0.0,0.0,0.0,0.0,0.0,0.0,0.0,0.0,0.0,0.0,0.0,0.0,0.0,0.0,0.0,0.0,0.0,0.0,0.0,0.0,0.0,0.0,0.0,0.0,0.0,0.0,0.0,0.0,0.0,0.0,0.0,0.0,0.0,0.0
196339000000,5878,196338000000,odom,base_footprint,1.9529123906089758,1.9697651128774152,-0.00100195093279783,-0.0009160709613483239,0.0037467769144097934,0.23523142490814614,0.9719317358808851,1e-05,0.0,0.0,0.0,0.0,0.0,0.0,1e-05,0.0,0.0,0.0,0.0,0.0,0.0,1000000000000.0,0.0,0.0,0.0,0.0,0.0,0.0,1000000000000.0,0.0,0.0,0.0,0.0,0.0,0.0,1000000000000.0,0.0,0.0,0.0,0.0,0.0,0.0,0.001,-7.64879316225891e-05,-6.909334905368721e-07,0.0,0.0,0.0,-0.0003057394629379511,0.0,0.0,0.0,0.0,0.0,0.0,0.0,0.0,0.0,0.0,0.0,0.0,0.0,0.0,0.0,0.0,0.0,0.0,0.0,0.0,0.0,0.0,0.0,0.0,0.0,0.0,0.0,0.0,0.0,0.0,0.0,0.0,0.0,0.0,0.0,0.0
196372000000,5879,196371000000,odom,base_footprint,1.9529105125010995,1.9697641577080534,-0.0010019509882774717,-0.0009160546355325095,0.003746781344275033,0.23522716677526906,0.9719327664423825,1e-05,0.0,0.0,0.0,0.0,0.0,0.0,1e-05,0.0,0.0,0.0,0.0,0.0,0.0,1000000000000.0,0.0,0.0,0.0,0.0,0.0,0.0,1000000000000.0,0.0,0.0,0.0,0.0,0.0,0.0,1000000000000.0,0.0,0.0,0.0,0.0,0.0,0.0,0.001,-7.648415943262621e-05,-6.908761004467554e-07,0.0,0.0,0.0,-0.0003059124091935886,0.0,0.0,0.0,0.0,0.0,0.0,0.0,0.0,0.0,0.0,0.0,0.0,0.0,0.0,0.0,0.0,0.0,0.0,0.0,0.0,0.0,0.0,0.0,0.0,0.0,0.0,0.0,0.0,0.0,0.0,0.0,0.0,0.0,0.0,0.0,0.0
196406000000,5880,196405000000,odom,base_footprint,1.952908577571664,1.9697631736652617,-0.0010019510454404232,-0.0009160378053274847,0.0037467859106910264,0.23522277711527448,0.9719338288156538,1e-05,0.0,0.0,0.0,0.0,0.0,0.0,1e-05,0.0,0.0,0.0,0.0,0.0,0.0,1000000000000.0,0.0,0.0,0.0,0.0,0.0,0.0,1000000000000.0,0.0,0.0,0.0,0.0,0.0,0.0,1000000000000.0,0.0,0.0,0.0,0.0,0.0,0.0,0.001,-7.64802748256441e-05,-6.908183406364337e-07,0.0,0.0,0.0,-0.0003060905545864826,0.0,0.0,0.0,0.0,0.0,0.0,0.0,0.0,0.0,0.0,0.0,0.0,0.0,0.0,0.0,0.0,0.0,0.0,0.0,0.0,0.0,0.0,0.0,0.0,0.0,0.0,0.0,0.0,0.0,0.0,0.0,0.0,0.0,0.0,0.0,0.0
196439000000,5881,196438000000,odom,base_footprint,1.952906699639984,1.9697622186338868,-0.0010019511009237946,-0.0009160214607435548,0.00374679034504205,0.23521851414381953,0.9719348605080319,1e-05,0.0,0.0,0.0,0.0,0.0,0.0,1e-05,0.0,0.0,0.0,0.0,0.0,0.0,1000000000000.0,0.0,0.0,0.0,0.0,0.0,0.0,1000000000000.0,0.0,0.0,0.0,0.0,0.0,0.0,1000000000000.0,0.0,0.0,0.0,0.0,0.0,0.0,0.001,-7.647651124445509e-05,-6.907639067810613e-07,0.0,0.0,0.0,-0.0003062634238139504,0.0,0.0,0.0,0.0,0.0,0.0,0.0,0.0,0.0,0.0,0.0,0.0,0.0,0.0,0.0,0.0,0.0,0.0,0.0,0.0,0.0,0.0,0.0,0.0,0.0,0.0,0.0,0.0,0.0,0.0,0.0,0.0,0.0,0.0,0.0,0.0
196472000000,5882,196471000000,odom,base_footprint,1.9529048217949894,1.9697612636704394,-0.0010019511564125783,-0.0009160051069437744,0.003746794781617252,0.23521424878980032,0.9719358927572119,1e-05,0.0,0.0,0.0,0.0,0.0,0.0,1e-05,0.0,0.0,0.0,0.0,0.0,0.0,1000000000000.0,0.0,0.0,0.0,0.0,0.0,0.0,1000000000000.0,0.0,0.0,0.0,0.0,0.0,0.0,1000000000000.0,0.0,0.0,0.0,0.0,0.0,0.0,0.001,-7.647274724825968e-05,-6.907047067016659e-07,0.0,0.0,0.0,-0.00030643626011681404,0.0,0.0,0.0,0.0,0.0,0.0,0.0,0.0,0.0,0.0,0.0,0.0,0.0,0.0,0.0,0.0,0.0,0.0,0.0,0.0,0.0,0.0,0.0,0.0,0.0,0.0,0.0,0.0,0.0,0.0,0.0,0.0,0.0,0.0,0.0,0.0
196506000000,5883,196505000000,odom,base_footprint,1.9529028871361964,1.9697602798397265,-0.0010019512135887622,-0.0009159882479379627,0.0037467993549623684,0.23520985169113032,0.9719369568688907,1e-05,0.0,0.0,0.0,0.0,0.0,0.0,1e-05,0.0,0.0,0.0,0.0,0.0,0.0,1000000000000.0,0.0,0.0,0.0,0.0,0.0,0.0,1000000000000.0,0.0,0.0,0.0,0.0,0.0,0.0,1000000000000.0,0.0,0.0,0.0,0.0,0.0,0.0,0.001,-7.646886948185908e-05,-6.906475144409052e-07,0.0,0.0,0.0,-0.0003066143000998892,0.0,0.0,0.0,0.0,0.0,0.0,0.0,0.0,0.0,0.0,0.0,0.0,0.0,0.0,0.0,0.0,0.0,0.0,0.0,0.0,0.0,0.0,0.0,0.0,0.0,0.0,0.0,0.0,0.0,0.0,0.0,0.0,0.0,0.0,0.0,0.0
196539000000,5884,196538000000,odom,base_footprint,1.95290100946699,1.9697593250141197,-0.0010019512690884955,-0.0009159718754262814,0.003746803796055483,0.23520558150112184,0.971937990248121,1e-05,0.0,0.0,0.0,0.0,0.0,0.0,1e-05,0.0,0.0,0.0,0.0,0.0,0.0,1000000000000.0,0.0,0.0,0.0,0.0,0.0,0.0,1000000000000.0,0.0,0.0,0.0,0.0,0.0,0.0,1000000000000.0,0.0,0.0,0.0,0.0,0.0,0.0,0.001,-7.646511456631277e-05,-6.905765946093405e-07,0.0,0.0,0.0,-0.00030678713697254804,0.0,0.0,0.0,0.0,0.0,0.0,0.0,0.0,0.0,0.0,0.0,0.0,0.0,0.0,0.0,0.0,0.0,0.0,0.0,0.0,0.0,0.0,0.0,0.0,0.0,0.0,0.0,0.0,0.0,0.0,0.0,0.0,0.0,0.0,0.0,0.0
196572000000,5885,196571000000,odom,base_footprint,1.9528991318844369,1.9697583702566819,-0.0010019513245977385,-0.0009159554935765171,0.003746808239442589,0.2352013089268167,0.9719390241844715,1e-05,0.0,0.0,0.0,0.0,0.0,0.0,1e-05,0.0,0.0,0.0,0.0,0.0,0.0,1000000000000.0,0.0,0.0,0.0,0.0,0.0,0.0,1000000000000.0,0.0,0.0,0.0,0.0,0.0,0.0,1000000000000.0,0.0,0.0,0.0,0.0,0.0,0.0,0.001,-7.646136180188711e-05,-6.90396664524105e-07,0.0,0.0,0.0,-0.00030696052174219914,0.0,0.0,0.0,0.0,0.0,0.0,0.0,0.0,0.0,0.0,0.0,0.0,0.0,0.0,0.0,0.0,0.0,0.0,0.0,0.0,0.0,0.0,0.0,0.0,0.0,0.0,0.0,0.0,0.0,0.0,0.0,0.0,0.0,0.0,0.0,0.0
196606000000,5886,196605000000,odom,base_footprint,1.9528971974958558,1.9697573866381775,-0.0010019513817908117,-0.0009159386056343394,0.0037468128197840995,0.23519690438858507,0.9719400900344585,1e-05,0.0,0.0,0.0,0.0,0.0,0.0,1e-05,0.0,0.0,0.0,0.0,0.0,0.0,1000000000000.0,0.0,0.0,0.0,0.0,0.0,0.0,1000000000000.0,0.0,0.0,0.0,0.0,0.0,0.0,1000000000000.0,0.0,0.0,0.0,0.0,0.0,0.0,0.001,-7.645750035677164e-05,-6.902110316581536e-07,0.0,0.0,0.0,-0.00030713915214166163,0.0,0.0,0.0,0.0,0.0,0.0,0.0,0.0,0.0,0.0,0.0,0.0,0.0,0.0,0.0,0.0,0.0,0.0,0.0,0.0,0.0,0.0,0.0,0.0,0.0,0.0,0.0,0.0,0.0,0.0,0.0,0.0,0.0,0.0,0.0,0.0
196639000000,5887,196638000000,odom,base_footprint,1.9528953200887529,1.9697564320184857,-0.0010019514373041626,-0.0009159222050287188,0.003746817267644025,0.23519262697734103,0.9719411251008852,1e-05,0.0,0.0,0.0,0.0,0.0,0.0,1e-05,0.0,0.0,0.0,0.0,0.0,0.0,1000000000000.0,0.0,0.0,0.0,0.0,0.0,0.0,1000000000000.0,0.0,0.0,0.0,0.0,0.0,0.0,1000000000000.0,0.0,0.0,0.0,0.0,0.0,0.0,0.001,-7.645375323921419e-05,-6.900268864796168e-07,0.0,0.0,0.0,-0.0003073124782316388,0.0,0.0,0.0,0.0,0.0,0.0,0.0,0.0,0.0,0.0,0.0,0.0,0.0,0.0,0.0,0.0,0.0,0.0,0.0,0.0,0.0,0.0,0.0,0.0,0.0,0.0,0.0,0.0,0.0,0.0,0.0,0.0,0.0,0.0,0.0,0.0
196672000000,5888,196671000000,odom,base_footprint,1.9528934427679938,1.9697554774666062,-0.0010019514928224747,-0.0009159057952132604,0.003746821717722128,0.23518834718425427,0.971942160723738,1e-05,0.0,0.0,0.0,0.0,0.0,0.0,1e-05,0.0,0.0,0.0,0.0,0.0,0.0,1000000000000.0,0.0,0.0,0.0,0.0,0.0,0.0,1000000000000.0,0.0,0.0,0.0,0.0,0.0,0.0,1000000000000.0,0.0,0.0,0.0,0.0,0.0,0.0,0.001,-7.645001627793488e-05,-6.89847254950666e-07,0.0,0.0,0.0,-0.0003074857111123034,0.0,0.0,0.0,0.0,0.0,0.0,0.0,0.0,0.0,0.0,0.0,0.0,0.0,0.0,0.0,0.0,0.0,0.0,0.0,0.0,0.0,0.0,0.0,0.0,0.0,0.0,0.0,0.0,0.0,0.0,0.0,0.0,0.0,0.0,0.0,0.0
196706000000,5889,196705000000,odom,base_footprint,1.9528915086489786,1.9697544940598306,-0.0010019515500313998,-0.0009158888785064125,0.0037468263049954833,0.23518393520959235,0.9719432283109609,1e-05,0.0,0.0,0.0,0.0,0.0,0.0,1e-05,0.0,0.0,0.0,0.0,0.0,0.0,1000000000000.0,0.0,0.0,0.0,0.0,0.0,0.0,1000000000000.0,0.0,0.0,0.0,0.0,0.0,0.0,1000000000000.0,0.0,0.0,0.0,0.0,0.0,0.0,0.001,-7.644616549513057e-05,-6.896608662850355e-07,0.0,0.0,0.0,-0.00030766414062521473,0.0,0.0,0.0,0.0,0.0,0.0,0.0,0.0,0.0,0.0,0.0,0.0,0.0,0.0,0.0,0.0,0.0,0.0,0.0,0.0,0.0,0.0,0.0,0.0,0.0,0.0,0.0,0.0,0.0,0.0,0.0,0.0,0.0,0.0,0.0,0.0
196739000000,5890,196738000000,odom,base_footprint,1.9528896315033364,1.9697535396455899,-0.0010019516055653488,-0.0009158724500053455,0.0037468307596223286,0.23517965058178447,0.9719442650631485,1e-05,0.0,0.0,0.0,0.0,0.0,0.0,1e-05,0.0,0.0,0.0,0.0,0.0,0.0,1000000000000.0,0.0,0.0,0.0,0.0,0.0,0.0,1000000000000.0,0.0,0.0,0.0,0.0,0.0,0.0,1000000000000.0,0.0,0.0,0.0,0.0,0.0,0.0,0.001,-7.644243352126413e-05,-6.894824762111504e-07,0.0,0.0,0.0,-0.0003078372987600177,0.0,0.0,0.0,0.0,0.0,0.0,0.0,0.0,0.0,0.0,0.0,0.0,0.0,0.0,0.0,0.0,0.0,0.0,0.0,0.0,0.0,0.0,0.0,0.0,0.0,0.0,0.0,0.0,0.0,0.0,0.0,0.0,0.0,0.0,0.0,0.0
196772000000,5891,196771000000,odom,base_footprint,1.9528877544438241,1.9697525852990962,-0.00100195166110522,-0.0009158560122914366,0.0037468352164765463,0.23517536357349195,0.9719453023713327,1e-05,0.0,0.0,0.0,0.0,0.0,0.0,1e-05,0.0,0.0,0.0,0.0,0.0,0.0,1000000000000.0,0.0,0.0,0.0,0.0,0.0,0.0,1000000000000.0,0.0,0.0,0.0,0.0,0.0,0.0,1000000000000.0,0.0,0.0,0.0,0.0,0.0,0.0,0.001,-7.643870119342804e-05,-6.893033513084211e-07,0.0,0.0,0.0,-0.00030801045998850714,0.0,0.0,0.0,0.0,0.0,0.0,0.0,0.0,0.0,0.0,0.0,0.0,0.0,0.0,0.0,0.0,0.0,0.0,0.0,0.0,0.0,0.0,0.0,0.0,0.0,0.0,0.0,0.0,0.0,0.0,0.0,0.0,0.0,0.0,0.0,0.0
196806000000,5892,196805000000,odom,base_footprint,1.952885820593724,1.9697516021038302,-0.001001951718332613,-0.0009158390668272527,0.003746839810702431,0.23517094416665066,0.9719463716944483,1e-05,0.0,0.0,0.0,0.0,0.0,0.0,1e-05,0.0,0.0,0.0,0.0,0.0,0.0,1000000000000.0,0.0,0.0,0.0,0.0,0.0,0.0,1000000000000.0,0.0,0.0,0.0,0.0,0.0,0.0,1000000000000.0,0.0,0.0,0.0,0.0,0.0,0.0,0.001,-7.643485236103137e-05,-6.891173232722315e-07,0.0,0.0,0.0,-0.00030818884423573534,0.0,0.0,0.0,0.0,0.0,0.0,0.0,0.0,0.0,0.0,0.0,0.0,0.0,0.0,0.0,0.0,0.0,0.0,0.0,0.0,0.0,0.0,0.0,0.0,0.0,0.0,0.0,0.0,0.0,0.0,0.0,0.0,0.0,0.0,0.0,0.0
196839000000,5893,196838000000,odom,base_footprint,1.9528839437088594,1.9697506478947795,-0.0010019517738814009,-0.0009158226104102926,0.0037468442720512093,0.2351666523268253,0.9719474101309914,1e-05,0.0,0.0,0.0,0.0,0.0,0.0,1e-05,0.0,0.0,0.0,0.0,0.0,0.0,1000000000000.0,0.0,0.0,0.0,0.0,0.0,0.0,1000000000000.0,0.0,0.0,0.0,0.0,0.0,0.0,1000000000000.0,0.0,0.0,0.0,0.0,0.0,0.0,0.001,-7.643112422829097e-05,-6.889381521692082e-07,0.0,0.0,0.0,-0.0003083619408966795,0.0,0.0,0.0,0.0,0.0,0.0,0.0,0.0,0.0,0.0,0.0,0.0,0.0,0.0,0.0,0.0,0.0,0.0,0.0,0.0,0.0,0.0,0.0,0.0,0.0,0.0,0.0,0.0,0.0,0.0,0.0,0.0,0.0,0.0,0.0,0.0
196872000000,5894,196871000000,odom,base_footprint,1.9528820669099245,1.9697496937533878,-0.0010019518294357363,-0.0009158061447921182,0.0037468487356205407,0.23516235810790595,0.9719484491230935,1e-05,0.0,0.0,0.0,0.0,0.0,0.0,1e-05,0.0,0.0,0.0,0.0,0.0,0.0,1000000000000.0,0.0,0.0,0.0,0.0,0.0,0.0,1000000000000.0,0.0,0.0,0.0,0.0,0.0,0.0,1000000000000.0,0.0,0.0,0.0,0.0,0.0,0.0,0.001,-7.642740112875244e-05,-6.887569374229083e-07,0.0,0.0,0.0,-0.00030853498472237294,0.0,0.0,0.0,0.0,0.0,0.0,0.0,0.0,0.0,0.0,0.0,0.0,0.0,0.0,0.0,0.0,0.0,0.0,0.0,0.0,0.0,0.0,0.0,0.0,0.0,0.0,0.0,0.0,0.0,0.0,0.0,0.0,0.0,0.0,0.0,0.0
196906000000,5895,196905000000,odom,base_footprint,1.9528801333281018,1.9697487107693659,-0.0010019518866802544,-0.0009157891705952408,0.0037468533367791697,0.23515793127325668,0.9719495201807293,1e-05,0.0,0.0,0.0,0.0,0.0,0.0,1e-05,0.0,0.0,0.0,0.0,0.0,0.0,1000000000000.0,0.0,0.0,0.0,0.0,0.0,0.0,1000000000000.0,0.0,0.0,0.0,0.0,0.0,0.0,1000000000000.0,0.0,0.0,0.0,0.0,0.0,0.0,0.001,-7.64235666739515e-05,-6.885721884344076e-07,0.0,0.0,0.0,-0.0003087132331353248,0.0,0.0,0.0,0.0,0.0,0.0,0.0,0.0,0.0,0.0,0.0,0.0,0.0,0.0,0.0,0.0,0.0,0.0,0.0,0.0,0.0,0.0,0.0,0.0,0.0,0.0,0.0,0.0,0.0,0.0,0.0,0.0,0.0,0.0,0.0,0.0
196939000000,5896,196938000000,odom,base_footprint,1.9528782567034257,1.9697477567652752,-0.0010019519422473158,-0.0009157726863016413,0.0037468578048679107,0.23515363222540317,0.9719505603003565,1e-05,0.0,0.0,0.0,0.0,0.0,0.0,1e-05,0.0,0.0,0.0,0.0,0.0,0.0,1000000000000.0,0.0,0.0,0.0,0.0,0.0,0.0,1000000000000.0,0.0,0.0,0.0,0.0,0.0,0.0,1000000000000.0,0.0,0.0,0.0,0.0,0.0,0.0,0.001,-7.641984734128786e-05,-6.883927662481386e-07,0.0,0.0,0.0,-0.0003088862104206579,0.0,0.0,0.0,0.0,0.0,0.0,0.0,0.0,0.0,0.0,0.0,0.0,0.0,0.0,0.0,0.0,0.0,0.0,0.0,0.0,0.0,0.0,0.0,0.0,0.0,0.0,0.0,0.0,0.0,0.0,0.0,0.0,0.0,0.0,0.0,0.0
196972000000,5897,196971000000,odom,base_footprint,1.95287638016447,1.9697468028287697,-0.0010019519978201087,-0.0009157561928083633,0.0037468622751784583,0.2351493307998329,0.9719516009751088,1e-05,0.0,0.0,0.0,0.0,0.0,0.0,1e-05,0.0,0.0,0.0,0.0,0.0,0.0,1000000000000.0,0.0,0.0,0.0,0.0,0.0,0.0,1000000000000.0,0.0,0.0,0.0,0.0,0.0,0.0,1000000000000.0,0.0,0.0,0.0,0.0,0.0,0.0,0.001,-7.641612844166183e-05,-6.882148937605053e-07,0.0,0.0,0.0,-0.00030905916675714367,0.0,0.0,0.0,0.0,0.0,0.0,0.0,0.0,0.0,0.0,0.0,0.0,0.0,0.0,0.0,0.0,0.0,0.0,0.0,0.0,0.0,0.0,0.0,0.0,0.0,0.0,0.0,0.0,0.0,0.0,0.0,0.0,0.0,0.0,0.0,0.0
197006000000,5898,197005000000,odom,base_footprint,1.95287444685028,1.9697458200557532,-0.0010019520550823002,-0.0009157391898911347,0.0037468668832706773,0.23514489654166398,0.971952673765912,1e-05,0.0,0.0,0.0,0.0,0.0,0.0,1e-05,0.0,0.0,0.0,0.0,0.0,0.0,1000000000000.0,0.0,0.0,0.0,0.0,0.0,0.0,1000000000000.0,0.0,0.0,0.0,0.0,0.0,0.0,1000000000000.0,0.0,0.0,0.0,0.0,0.0,0.0,0.001,-7.641230009785832e-05,-6.880286761417131e-07,0.0,0.0,0.0,-0.0003092373340225418,0.0,0.0,0.0,0.0,0.0,0.0,0.0,0.0,0.0,0.0,0.0,0.0,0.0,0.0,0.0,0.0,0.0,0.0,0.0,0.0,0.0,0.0,0.0,0.0,0.0,0.0,0.0,0.0,0.0,0.0,0.0,0.0,0.0,0.0,0.0,0.0
197039000000,5899,197038000000,odom,base_footprint,1.9528725704851506,1.9697448662563761,-0.0010019521106655674,-0.0009157226777245618,0.0037468713580799226,0.23514059029006656,0.9719537155672807,1e-05,0.0,0.0,0.0,0.0,0.0,0.0,1e-05,0.0,0.0,0.0,0.0,0.0,0.0,1000000000000.0,0.0,0.0,0.0,0.0,0.0,0.0,1000000000000.0,0.0,0.0,0.0,0.0,0.0,0.0,1000000000000.0,0.0,0.0,0.0,0.0,0.0,0.0,0.001,-7.640858743066333e-05,-6.878475344486237e-07,0.0,0.0,0.0,-0.0003094102245383534,0.0,0.0,0.0,0.0,0.0,0.0,0.0,0.0,0.0,0.0,0.0,0.0,0.0,0.0,0.0,0.0,0.0,0.0,0.0,0.0,0.0,0.0,0.0,0.0,0.0,0.0,0.0,0.0,0.0,0.0,0.0,0.0,0.0,0.0,0.0,0.0
197072000000,5900,197071000000,odom,base_footprint,1.952870694205539,1.9697439125245024,-0.001001952166254507,-0.0009157061563657761,0.0037468758351077813,0.23513628166213232,0.9719547579233397,1e-05,0.0,0.0,0.0,0.0,0.0,0.0,1e-05,0.0,0.0,0.0,0.0,0.0,0.0,1000000000000.0,0.0,0.0,0.0,0.0,0.0,0.0,1000000000000.0,0.0,0.0,0.0,0.0,0.0,0.0,1000000000000.0,0.0,0.0,0.0,0.0,0.0,0.0,0.001,-7.640487669488353e-05,-6.876681652388716e-07,0.0,0.0,0.0,-0.00030958307477401195,0.0,0.0,0.0,0.0,0.0,0.0,0.0,0.0,0.0,0.0,0.0,0.0,0.0,0.0,0.0,0.0,0.0,0.0,0.0,0.0,0.0,0.0,0.0,0.0,0.0,0.0,0.0,0.0,0.0,0.0,0.0,0.0,0.0,0.0,0.0,0.0
197106000000,5901,197105000000,odom,base_footprint,1.952868761158342,1.9697429299622395,-0.0010019522235341048,-0.0009156891247483566,0.003746880450124964,0.23513183998473325,0.971955832445957,1e-05,0.0,0.0,0.0,0.0,0.0,0.0,1e-05,0.0,0.0,0.0,0.0,0.0,0.0,1000000000000.0,0.0,0.0,0.0,0.0,0.0,0.0,1000000000000.0,0.0,0.0,0.0,0.0,0.0,0.0,1000000000000.0,0.0,0.0,0.0,0.0,0.0,0.0,0.001,-7.640105684766247e-05,-6.874810395914561e-07,0.0,0.0,0.0,-0.00030976112814421104,0.0,0.0,0.0,0.0,0.0,0.0,0.0,0.0,0.0,0.0,0.0,0.0,0.0,0.0,0.0,0.0,0.0,0.0,0.0,0.0,0.0,0.0,0.0,0.0,0.0,0.0,0.0,0.0,0.0,0.0,0.0,0.0,0.0,0.0,0.0,0.0
197139000000,5902,197138000000,odom,base_footprint,1.9528668850521507,1.9697419763673414,-0.0010019522791348823,-0.0009156725847326585,0.0037468849316585184,0.23512752653348323,0.9719568759277712,1e-05,0.0,0.0,0.0,0.0,0.0,0.0,1e-05,0.0,0.0,0.0,0.0,0.0,0.0,1000000000000.0,0.0,0.0,0.0,0.0,0.0,0.0,1000000000000.0,0.0,0.0,0.0,0.0,0.0,0.0,1000000000000.0,0.0,0.0,0.0,0.0,0.0,0.0,0.001,-7.639735093268792e-05,-6.873010967148576e-07,0.0,0.0,0.0,-0.0003099339134163506,0.0,0.0,0.0,0.0,0.0,0.0,0.0,0.0,0.0,0.0,0.0,0.0,0.0,0.0,0.0,0.0,0.0,0.0,0.0,0.0,0.0,0.0,0.0,0.0,0.0,0.0,0.0,0.0,0.0,0.0,0.0,0.0,0.0,0.0,0.0,0.0
197172000000,5903,197171000000,odom,base_footprint,1.9528650090312707,1.9697410228398682,-0.0010019523347412525,-0.0009156560355285513,0.0037468894154090147,0.23512321070726647,0.9719579199638428,1e-05,0.0,0.0,0.0,0.0,0.0,0.0,1e-05,0.0,0.0,0.0,0.0,0.0,0.0,1000000000000.0,0.0,0.0,0.0,0.0,0.0,0.0,1000000000000.0,0.0,0.0,0.0,0.0,0.0,0.0,1000000000000.0,0.0,0.0,0.0,0.0,0.0,0.0,0.001,-7.639364710649015e-05,-6.87120563936427e-07,0.0,0.0,0.0,-0.000310106671466922,0.0,0.0,0.0,0.0,0.0,0.0,0.0,0.0,0.0,0.0,0.0,0.0,0.0,0.0,0.0,0.0,0.0,0.0,0.0,0.0,0.0,0.0,0.0,0.0,0.0,0.0,0.0,0.0,0.0,0.0,0.0,0.0,0.0,0.0,0.0,0.0
197206000000,5904,197205000000,odom,base_footprint,1.9528630762504295,1.9697400404881151,-0.0010019523920383397,-0.0009156389752251619,0.0037468940373470597,0.23511876161492204,0.9719589962169215,1e-05,0.0,0.0,0.0,0.0,0.0,0.0,1e-05,0.0,0.0,0.0,0.0,0.0,0.0,1000000000000.0,0.0,0.0,0.0,0.0,0.0,0.0,1000000000000.0,0.0,0.0,0.0,0.0,0.0,0.0,1000000000000.0,0.0,0.0,0.0,0.0,0.0,0.0,0.001,-7.638983340038969e-05,-6.869341703105445e-07,0.0,0.0,0.0,-0.00031028462936598004,0.0,0.0,0.0,0.0,0.0,0.0,0.0,0.0,0.0,0.0,0.0,0.0,0.0,0.0,0.0,0.0,0.0,0.0,0.0,0.0,0.0,0.0,0.0,0.0,0.0,0.0,0.0,0.0,0.0,0.0,0.0,0.0,0.0,0.0,0.0,0.0
197239000000,5905,197238000000,odom,base_footprint,1.952861200402497,1.9697390870975218,-0.0010019524476562632,-0.0009156224064920019,0.0037468985259695655,0.23511444096849496,0.9719600413777908,1e-05,0.0,0.0,0.0,0.0,0.0,0.0,1e-05,0.0,0.0,0.0,0.0,0.0,0.0,1000000000000.0,0.0,0.0,0.0,0.0,0.0,0.0,1000000000000.0,0.0,0.0,0.0,0.0,0.0,0.0,1000000000000.0,0.0,0.0,0.0,0.0,0.0,0.0,0.001,-7.638613549627675e-05,-6.867917302458642e-07,0.0,0.0,0.0,-0.0003104569902271172,0.0,0.0,0.0,0.0,0.0,0.0,0.0,0.0,0.0,0.0,0.0,0.0,0.0,0.0,0.0,0.0,0.0,0.0,0.0,0.0,0.0,0.0,0.0,0.0,0.0,0.0,0.0,0.0,0.0,0.0,0.0,0.0,0.0,0.0,0.0,0.0
197272000000,5906,197271000000,odom,base_footprint,1.9528593246389812,1.9697381337741047,-0.0010019525032613635,-0.0009156058256933774,0.0037469030178359968,0.2351101179562121,0.9719610870906114,1e-05,0.0,0.0,0.0,0.0,0.0,0.0,1e-05,0.0,0.0,0.0,0.0,0.0,0.0,1000000000000.0,0.0,0.0,0.0,0.0,0.0,0.0,1000000000000.0,0.0,0.0,0.0,0.0,0.0,0.0,1000000000000.0,0.0,0.0,0.0,0.0,0.0,0.0,0.001,-7.638244465597257e-05,-6.867274422556633e-07,0.0,0.0,0.0,-0.0003106287640984315,0.0,0.0,0.0,0.0,0.0,0.0,0.0,0.0,0.0,0.0,0.0,0.0,0.0,0.0,0.0,0.0,0.0,0.0,0.0,0.0,0.0,0.0,0.0,0.0,0.0,0.0,0.0,0.0,0.0,0.0,0.0,0.0,0.0,0.0,0.0,0.0
197306000000,5907,197305000000,odom,base_footprint,1.9528573921226526,1.9697371516322717,-0.001001952560560019,-0.0009155887328766923,0.00374690764815331,0.23510566146910503,0.9719621650689511,1e-05,0.0,0.0,0.0,0.0,0.0,0.0,1e-05,0.0,0.0,0.0,0.0,0.0,0.0,1000000000000.0,0.0,0.0,0.0,0.0,0.0,0.0,1000000000000.0,0.0,0.0,0.0,0.0,0.0,0.0,1000000000000.0,0.0,0.0,0.0,0.0,0.0,0.0,0.001,-7.637865320296629e-05,-6.866679486083568e-07,0.0,0.0,0.0,-0.00031080562168703084,0.0,0.0,0.0,0.0,0.0,0.0,0.0,0.0,0.0,0.0,0.0,0.0,0.0,0.0,0.0,0.0,0.0,0.0,0.0,0.0,0.0,0.0,0.0,0.0,0.0,0.0,0.0,0.0,0.0,0.0,0.0,0.0,0.0,0.0,0.0,0.0
197339000000,5908,197338000000,odom,base_footprint,1.9528555165308747,1.9697361984450612,-0.001001952616183164,-0.0009155721335267028,0.0037469121445524015,0.2351013336538374,0.9719632119021977,1e-05,0.0,0.0,0.0,0.0,0.0,0.0,1e-05,0.0,0.0,0.0,0.0,0.0,0.0,1000000000000.0,0.0,0.0,0.0,0.0,0.0,0.0,1000000000000.0,0.0,0.0,0.0,0.0,0.0,0.0,1000000000000.0,0.0,0.0,0.0,0.0,0.0,0.0,0.001,-7.637497225214889e-05,-6.866100244999962e-07,0.0,0.0,0.0,-0.0003109772349188874,0.0,0.0,0.0,0.0,0.0,0.0,0.0,0.0,0.0,0.0,0.0,0.0,0.0,0.0,0.0,0.0,0.0,0.0,0.0,0.0,0.0,0.0,0.0,0.0,0.0,0.0,0.0,0.0,0.0,0.0,0.0,0.0,0.0,0.0,0.0,0.0
197372000000,5909,197371000000,odom,base_footprint,1.9528536410235617,1.9697352453249073,-0.0010019526718144343,-0.0009155555250359823,0.0037469166431772774,0.23509700347360618,0.9719642592870794,1e-05,0.0,0.0,0.0,0.0,0.0,0.0,1e-05,0.0,0.0,0.0,0.0,0.0,0.0,1000000000000.0,0.0,0.0,0.0,0.0,0.0,0.0,1000000000000.0,0.0,0.0,0.0,0.0,0.0,0.0,1000000000000.0,0.0,0.0,0.0,0.0,0.0,0.0,0.001,-7.637128823459706e-05,-6.865519893866262e-07,0.0,0.0,0.0,-0.00031114888229600565,0.0,0.0,0.0,0.0,0.0,0.0,0.0,0.0,0.0,0.0,0.0,0.0,0.0,0.0,0.0,0.0,0.0,0.0,0.0,0.0,0.0,0.0,0.0,0.0,0.0,0.0,0.0,0.0,0.0,0.0,0.0,0.0,0.0,0.0,0.0,0.0
197406000000,5910,197405000000,odom,base_footprint,1.9528517087709372,1.9697342633924089,-0.0010019527291354746,-0.0009155384036832723,0.003746921280416211,0.23509253960291748,0.9719653389876618,1e-05,0.0,0.0,0.0,0.0,0.0,0.0,1e-05,0.0,0.0,0.0,0.0,0.0,0.0,1000000000000.0,0.0,0.0,0.0,0.0,0.0,0.0,1000000000000.0,0.0,0.0,0.0,0.0,0.0,0.0,1000000000000.0,0.0,0.0,0.0,0.0,0.0,0.0,0.001,-7.636749557003937e-05,-6.864923322681747e-07,0.0,0.0,0.0,-0.00031132574567095737,0.0,0.0,0.0,0.0,0.0,0.0,0.0,0.0,0.0,0.0,0.0,0.0,0.0,0.0,0.0,0.0,0.0,0.0,0.0,0.0,0.0,0.0,0.0,0.0,0.0,0.0,0.0,0.0,0.0,0.0,0.0,0.0,0.0,0.0,0.0,0.0
197439000000,5911,197438000000,odom,base_footprint,1.9528498334348559,1.9697333104082655,-0.0010019527847738297,-0.0009155217766119426,0.003746925783483182,0.23508820462285335,0.9719663874920021,1e-05,0.0,0.0,0.0,0.0,0.0,0.0,1e-05,0.0,0.0,0.0,0.0,0.0,0.0,1000000000000.0,0.0,0.0,0.0,0.0,0.0,0.0,1000000000000.0,0.0,0.0,0.0,0.0,0.0,0.0,1000000000000.0,0.0,0.0,0.0,0.0,0.0,0.0,0.001,-7.636381298333969e-05,-6.864309769484038e-07,0.0,0.0,0.0,-0.00031149738195427495,0.0,0.0,0.0,0.0,0.0,0.0,0.0,0.0,0.0,0.0,0.0,0.0,0.0,0.0,0.0,0.0,0.0,0.0,0.0,0.0,0.0,0.0,0.0,0.0,0.0,0.0,0.0,0.0,0.0,0.0,0.0,0.0,0.0,0.0,0.0,0.0
197472000000,5912,197471000000,odom,base_footprint,1.9528479581830278,1.969732357491071,-0.0010019528404162231,-0.0009155051404024157,0.0037469302887387815,0.23508386727927574,0.971967436547526,1e-05,0.0,0.0,0.0,0.0,0.0,0.0,1e-05,0.0,0.0,0.0,0.0,0.0,0.0,1000000000000.0,0.0,0.0,0.0,0.0,0.0,0.0,1000000000000.0,0.0,0.0,0.0,0.0,0.0,0.0,1000000000000.0,0.0,0.0,0.0,0.0,0.0,0.0,0.001,-7.636013895796445e-05,-6.863730840768497e-07,0.0,0.0,0.0,-0.00031166895174647777,0.0,0.0,0.0,0.0,0.0,0.0,0.0,0.0,0.0,0.0,0.0,0.0,0.0,0.0,0.0,0.0,0.0,0.0,0.0,0.0,0.0,0.0,0.0,0.0,0.0,0.0,0.0,0.0,0.0,0.0,0.0,0.0,0.0,0.0,0.0,0.0
197506000000,5913,197505000000,odom,base_footprint,1.9528460261934555,1.969731375767609,-0.0010019528977516581,-0.0009154879905175106,0.003746934932827093,0.2350793960293165,0.9719685179689929,1e-05,0.0,0.0,0.0,0.0,0.0,0.0,1e-05,0.0,0.0,0.0,0.0,0.0,0.0,1000000000000.0,0.0,0.0,0.0,0.0,0.0,0.0,1000000000000.0,0.0,0.0,0.0,0.0,0.0,0.0,1000000000000.0,0.0,0.0,0.0,0.0,0.0,0.0,0.001,-7.635635468090656e-05,-6.863094349858132e-07,0.0,0.0,0.0,-0.0003118456632360087,0.0,0.0,0.0,0.0,0.0,0.0,0.0,0.0,0.0,0.0,0.0,0.0,0.0,0.0,0.0,0.0,0.0,0.0,0.0,0.0,0.0,0.0,0.0,0.0,0.0,0.0,0.0,0.0,0.0,0.0,0.0,0.0,0.0,0.0,0.0,0.0
197539000000,5914,197538000000,odom,base_footprint,1.9528441511125167,1.9697304229862969,-0.0010019529534077871,-0.000915471335773325,0.0037469394425695317,0.23507505388809058,0.9719695681432411,1e-05,0.0,0.0,0.0,0.0,0.0,0.0,1e-05,0.0,0.0,0.0,0.0,0.0,0.0,1000000000000.0,0.0,0.0,0.0,0.0,0.0,0.0,1000000000000.0,0.0,0.0,0.0,0.0,0.0,0.0,1000000000000.0,0.0,0.0,0.0,0.0,0.0,0.0,0.001,-7.635268725365511e-05,-6.862522364334272e-07,0.0,0.0,0.0,-0.0003120171451673392,0.0,0.0,0.0,0.0,0.0,0.0,0.0,0.0,0.0,0.0,0.0,0.0,0.0,0.0,0.0,0.0,0.0,0.0,0.0,0.0,0.0,0.0,0.0,0.0,0.0,0.0,0.0,0.0,0.0,0.0,0.0,0.0,0.0,0.0,0.0,0.0
197572000000,5915,197571000000,odom,base_footprint,1.9528422761156385,1.969729470271876,-0.0010019530090702167,-0.0009154546718943659,0.0037469439545195758,0.23507070938451466,0.97197061886829,1e-05,0.0,0.0,0.0,0.0,0.0,0.0,1e-05,0.0,0.0,0.0,0.0,0.0,0.0,1000000000000.0,0.0,0.0,0.0,0.0,0.0,0.0,1000000000000.0,0.0,0.0,0.0,0.0,0.0,0.0,1000000000000.0,0.0,0.0,0.0,0.0,0.0,0.0,0.001,-7.634901728667033e-05,-6.861905824038147e-07,0.0,0.0,0.0,-0.0003121886186320567,0.0,0.0,0.0,0.0,0.0,0.0,0.0,0.0,0.0,0.0,0.0,0.0,0.0,0.0,0.0,0.0,0.0,0.0,0.0,0.0,0.0,0.0,0.0,0.0,0.0,0.0,0.0,0.0,0.0,0.0,0.0,0.0,0.0,0.0,0.0,0.0
197606000000,5916,197605000000,odom,base_footprint,1.9528403443885158,1.9697284887572486,-0.0010019530664245081,-0.0009154374934929389,0.0037469486054919586,0.23506623075902153,0.9719717020094206,1e-05,0.0,0.0,0.0,0.0,0.0,0.0,1e-05,0.0,0.0,0.0,0.0,0.0,0.0,1000000000000.0,0.0,0.0,0.0,0.0,0.0,0.0,1000000000000.0,0.0,0.0,0.0,0.0,0.0,0.0,1000000000000.0,0.0,0.0,0.0,0.0,0.0,0.0,0.001,-7.634524048648323e-05,-6.861301278236301e-07,0.0,0.0,0.0,-0.000312365269119212,0.0,0.0,0.0,0.0,0.0,0.0,0.0,0.0,0.0,0.0,0.0,0.0,0.0,0.0,0.0,0.0,0.0,0.0,0.0,0.0,0.0,0.0,0.0,0.0,0.0,0.0,0.0,0.0,0.0,0.0,0.0,0.0,0.0,0.0,0.0,0.0
197639000000,5917,197638000000,odom,base_footprint,1.9528384695620888,1.9697275361785413,-0.001001953122096829,-0.0009154208110656842,0.003746953121898967,0.23506188146060958,0.9719727538523081,1e-05,0.0,0.0,0.0,0.0,0.0,0.0,1e-05,0.0,0.0,0.0,0.0,0.0,0.0,1000000000000.0,0.0,0.0,0.0,0.0,0.0,0.0,1000000000000.0,0.0,0.0,0.0,0.0,0.0,0.0,1000000000000.0,0.0,0.0,0.0,0.0,0.0,0.0,0.001,-7.634157343799863e-05,-6.860688027803335e-07,0.0,0.0,0.0,-0.00031253669372438835,0.0,0.0,0.0,0.0,0.0,0.0,0.0,0.0,0.0,0.0,0.0,0.0,0.0,0.0,0.0,0.0,0.0,0.0,0.0,0.0,0.0,0.0,0.0,0.0,0.0,0.0,0.0,0.0,0.0,0.0,0.0,0.0,0.0,0.0,0.0,0.0
