%time,field.header.seq,field.header.stamp,field.header.frame_id,field.child_frame_id,field.pose.pose.position.x,field.pose.pose.position.y,field.pose.pose.position.z,field.pose.pose.orientation.x,field.pose.pose.orientation.y,field.pose.pose.orientation.z,field.pose.pose.orientation.w,field.pose.covariance0,field.pose.covariance1,field.pose.covariance2,field.pose.covariance3,field.pose.covariance4,field.pose.covariance5,field.pose.covariance6,field.pose.covariance7,field.pose.covariance8,field.pose.covariance9,field.pose.covariance10,field.pose.covariance11,field.pose.covariance12,field.pose.covariance13,field.pose.covariance14,field.pose.covariance15,field.pose.covariance16,field.pose.covariance17,field.pose.covariance18,field.pose.covariance19,field.pose.covariance20,field.pose.covariance21,field.pose.covariance22,field.pose.covariance23,field.pose.covariance24,field.pose.covariance25,field.pose.covariance26,field.pose.covariance27,field.pose.covariance28,field.pose.covariance29,field.pose.covariance30,field.pose.covariance31,field.pose.covariance32,field.pose.covariance33,field.pose.covariance34,field.pose.covariance35,field.twist.twist.linear.x,field.twist.twist.linear.y,field.twist.twist.linear.z,field.twist.twist.angular.x,field.twist.twist.angular.y,field.twist.twist.angular.z,field.twist.covariance0,field.twist.covariance1,field.twist.covariance2,field.twist.covariance3,field.twist.covariance4,field.twist.covariance5,field.twist.covariance6,field.twist.covariance7,field.twist.covariance8,field.twist.covariance9,field.twist.covariance10,field.twist.covariance11,field.twist.covariance12,field.twist.covariance13,field.twist.covariance14,field.twist.covariance15,field.twist.covariance16,field.twist.covariance17,field.twist.covariance18,field.twist.covariance19,field.twist.covariance20,field.twist.covariance21,field.twist.covariance22,field.twist.covariance23,field.twist.covariance24,field.twist.covariance25,field.twist.covariance26,field.twist.covariance27,field.twist.covariance28,field.twist.covariance29,field.twist.covariance30,field.twist.covariance31,field.twist.covariance32,field.twist.covariance33,field.twist.covariance34,field.twist.covariance35
277005000000,8298,277003000000,odom,base_footprint,-0.9657844181933793,-0.49402387271641446,-0.0010014065843090628,-3.122531689656998e-05,0.0038530764816392758,0.00625163252988385,0.9999730345950923,1e-05,0.0,0.0,0.0,0.0,0.0,0.0,1e-05,0.0,0.0,0.0,0.0,0.0,0.0,1000000000000.0,0.0,0.0,0.0,0.0,0.0,0.0,1000000000000.0,0.0,0.0,0.0,0.0,0.0,0.0,1000000000000.0,0.0,0.0,0.0,0.0,0.0,0.0,0.001,2.3862451232274523e-05,1.3245349786785035e-06,0.0,0.0,0.0,-2.003959678979609e-06,0.0,0.0,0.0,0.0,0.0,0.0,0.0,0.0,0.0,0.0,0.0,0.0,0.0,0.0,0.0,0.0,0.0,0.0,0.0,0.0,0.0,0.0,0.0,0.0,0.0,0.0,0.0,0.0,0.0,0.0,0.0,0.0,0.0,0.0,0.0,0.0
277037000000,8299,277036000000,odom,base_footprint,-0.9657838554838257,-0.49402384936515914,-0.0010014065874287582,-3.1225982513473195e-05,0.00385307649951438,0.0062518037730322894,0.9999730335244099,1e-05,0.0,0.0,0.0,0.0,0.0,0.0,1e-05,0.0,0.0,0.0,0.0,0.0,0.0,1000000000000.0,0.0,0.0,0.0,0.0,0.0,0.0,1000000000000.0,0.0,0.0,0.0,0.0,0.0,0.0,1000000000000.0,0.0,0.0,0.0,0.0,0.0,0.0,0.001,2.3866106170993836e-05,1.3245101930922048e-06,0.0,0.0,0.0,-2.0116236160051182e-06,0.0,0.0,0.0,0.0,0.0,0.0,0.0,0.0,0.0,0.0,0.0,0.0,0.0,0.0,0.0,0.0,0.0,0.0,0.0,0.0,0.0,0.0,0.0,0.0,0.0,0.0,0.0,0.0,0.0,0.0,0.0,0.0,0.0,0.0,0.0,0.0
277070000000,8300,277069000000,odom,base_footprint,-0.9657832926695794,-0.49402382601243766,-0.0010014065905493072,-3.122664765480689e-05,0.0038530765173996305,0.0062519748925216586,0.9999730324544712,1e-05,0.0,0.0,0.0,0.0,0.0,0.0,1e-05,0.0,0.0,0.0,0.0,0.0,0.0,1000000000000.0,0.0,0.0,0.0,0.0,0.0,0.0,1000000000000.0,0.0,0.0,0.0,0.0,0.0,0.0,1000000000000.0,0.0,0.0,0.0,0.0,0.0,0.0,0.001,2.3869760429126695e-05,1.3244852488338532e-06,0.0,0.0,0.0,-2.0192906367056392e-06,0.0,0.0,0.0,0.0,0.0,0.0,0.0,0.0,0.0,0.0,0.0,0.0,0.0,0.0,0.0,0.0,0.0,0.0,0.0,0.0,0.0,0.0,0.0,0.0,0.0,0.0,0.0,0.0,0.0,0.0,0.0,0.0,0.0,0.0,0.0,0.0
277104000000,8301,277103000000,odom,base_footprint,-0.965782712690834,-0.49402380195052437,-0.0010014065937653388,-3.122733245445863e-05,0.0038530765358378086,0.00625215106806771,0.9999730313528885,1e-05,0.0,0.0,0.0,0.0,0.0,0.0,1e-05,0.0,0.0,0.0,0.0,0.0,0.0,1000000000000.0,0.0,0.0,0.0,0.0,0.0,0.0,1000000000000.0,0.0,0.0,0.0,0.0,0.0,0.0,1000000000000.0,0.0,0.0,0.0,0.0,0.0,0.0,0.001,2.387352758685397e-05,1.3244596944859827e-06,0.0,0.0,0.0,-2.0271932878216014e-06,0.0,0.0,0.0,0.0,0.0,0.0,0.0,0.0,0.0,0.0,0.0,0.0,0.0,0.0,0.0,0.0,0.0,0.0,0.0,0.0,0.0,0.0,0.0,0.0,0.0,0.0,0.0,0.0,0.0,0.0,0.0,0.0,0.0,0.0,0.0,0.0
277137000000,8302,277136000000,odom,base_footprint,-0.9657821496639654,-0.4940237785948255,-0.0010014065968876433,-3.122799662996845e-05,0.003853076553743879,0.0062523219363589105,0.9999730302844609,1e-05,0.0,0.0,0.0,0.0,0.0,0.0,1e-05,0.0,0.0,0.0,0.0,0.0,0.0,1000000000000.0,0.0,0.0,0.0,0.0,0.0,0.0,1000000000000.0,0.0,0.0,0.0,0.0,0.0,0.0,1000000000000.0,0.0,0.0,0.0,0.0,0.0,0.0,0.001,2.387718473397032e-05,1.3244348653366703e-06,0.0,0.0,0.0,-2.034866377976386e-06,0.0,0.0,0.0,0.0,0.0,0.0,0.0,0.0,0.0,0.0,0.0,0.0,0.0,0.0,0.0,0.0,0.0,0.0,0.0,0.0,0.0,0.0,0.0,0.0,0.0,0.0,0.0,0.0,0.0,0.0,0.0,0.0,0.0,0.0,0.0,0.0
277170000000,8303,277169000000,odom,base_footprint,-0.9657815865323406,-0.4940237552376601,-0.0010014066000108152,-3.1228660329594166e-05,0.0038530765716602283,0.006252492680858315,0.9999730292167782,1e-05,0.0,0.0,0.0,0.0,0.0,0.0,1e-05,0.0,0.0,0.0,0.0,0.0,0.0,1000000000000.0,0.0,0.0,0.0,0.0,0.0,0.0,1000000000000.0,0.0,0.0,0.0,0.0,0.0,0.0,1000000000000.0,0.0,0.0,0.0,0.0,0.0,0.0,0.001,2.3880842616372054e-05,1.3244100305362605e-06,0.0,0.0,0.0,-2.042542578079103e-06,0.0,0.0,0.0,0.0,0.0,0.0,0.0,0.0,0.0,0.0,0.0,0.0,0.0,0.0,0.0,0.0,0.0,0.0,0.0,0.0,0.0,0.0,0.0,0.0,0.0,0.0,0.0,0.0,0.0,0.0,0.0,0.0,0.0,0.0,0.0,0.0
277204000000,8304,277203000000,odom,base_footprint,-0.965781006226533,-0.49402373117116755,-0.001001406603229553,-3.122934364361768e-05,0.003853076590130397,0.006252668469912695,0.999973028117521,1e-05,0.0,0.0,0.0,0.0,0.0,0.0,1e-05,0.0,0.0,0.0,0.0,0.0,0.0,1000000000000.0,0.0,0.0,0.0,0.0,0.0,0.0,1000000000000.0,0.0,0.0,0.0,0.0,0.0,0.0,1000000000000.0,0.0,0.0,0.0,0.0,0.0,0.0,0.001,2.388461207818915e-05,1.324384437997491e-06,0.0,0.0,0.0,-2.0504546098134007e-06,0.0,0.0,0.0,0.0,0.0,0.0,0.0,0.0,0.0,0.0,0.0,0.0,0.0,0.0,0.0,0.0,0.0,0.0,0.0,0.0,0.0,0.0,0.0,0.0,0.0,0.0,0.0,0.0,0.0,0.0,0.0,0.0,0.0,0.0,0.0,0.0
277237000000,8305,277236000000,odom,base_footprint,-0.9657804428821571,-0.49402370781102356,-0.0010014066063544907,-3.1230006376832985e-05,0.0038530766080676574,0.006252838962945147,0.9999730270513515,1e-05,0.0,0.0,0.0,0.0,0.0,0.0,1e-05,0.0,0.0,0.0,0.0,0.0,0.0,1000000000000.0,0.0,0.0,0.0,0.0,0.0,0.0,1000000000000.0,0.0,0.0,0.0,0.0,0.0,0.0,1000000000000.0,0.0,0.0,0.0,0.0,0.0,0.0,0.001,2.3888271402975478e-05,1.3243595651810124e-06,0.0,0.0,0.0,-2.0581368534745633e-06,0.0,0.0,0.0,0.0,0.0,0.0,0.0,0.0,0.0,0.0,0.0,0.0,0.0,0.0,0.0,0.0,0.0,0.0,0.0,0.0,0.0,0.0,0.0,0.0,0.0,0.0,0.0,0.0,0.0,0.0,0.0,0.0,0.0,0.0,0.0,0.0
277270000000,8306,277269000000,odom,base_footprint,-0.9657798794329618,-0.4940236844494124,-0.0010014066094803098,-3.123066863377758e-05,0.00385307662601532,0.006253009332053465,0.9999730259859275,1e-05,0.0,0.0,0.0,0.0,0.0,0.0,1e-05,0.0,0.0,0.0,0.0,0.0,0.0,1000000000000.0,0.0,0.0,0.0,0.0,0.0,0.0,1000000000000.0,0.0,0.0,0.0,0.0,0.0,0.0,1000000000000.0,0.0,0.0,0.0,0.0,0.0,0.0,0.001,2.389193146831805e-05,1.3243347440495317e-06,0.0,0.0,0.0,-2.0658221646143565e-06,0.0,0.0,0.0,0.0,0.0,0.0,0.0,0.0,0.0,0.0,0.0,0.0,0.0,0.0,0.0,0.0,0.0,0.0,0.0,0.0,0.0,0.0,0.0,0.0,0.0,0.0,0.0,0.0,0.0,0.0,0.0,0.0,0.0,0.0,0.0,0.0
277304000000,8307,277303000000,odom,base_footprint,-0.9657792987998938,-0.4940236603783387,-0.001001406612701771,-3.123135046095726e-05,0.00385307664451753,0.006253184734203947,0.9999730248889988,1e-05,0.0,0.0,0.0,0.0,0.0,0.0,1e-05,0.0,0.0,0.0,0.0,0.0,0.0,1000000000000.0,0.0,0.0,0.0,0.0,0.0,0.0,1000000000000.0,0.0,0.0,0.0,0.0,0.0,0.0,1000000000000.0,0.0,0.0,0.0,0.0,0.0,0.0,0.001,2.3895703181084853e-05,1.3243091062448624e-06,0.0,0.0,0.0,-2.073743325258032e-06,0.0,0.0,0.0,0.0,0.0,0.0,0.0,0.0,0.0,0.0,0.0,0.0,0.0,0.0,0.0,0.0,0.0,0.0,0.0,0.0,0.0,0.0,0.0,0.0,0.0,0.0,0.0,0.0,0.0,0.0,0.0,0.0,0.0,0.0,0.0,0.0
277337000000,8308,277336000000,odom,base_footprint,-0.9657787351378184,-0.4940236370137479,-0.0010014066158293457,-3.123201175074644e-05,0.003853076662485933,0.0062533548515764925,0.9999730238250903,1e-05,0.0,0.0,0.0,0.0,0.0,0.0,1e-05,0.0,0.0,0.0,0.0,0.0,0.0,1000000000000.0,0.0,0.0,0.0,0.0,0.0,0.0,1000000000000.0,0.0,0.0,0.0,0.0,0.0,0.0,1000000000000.0,0.0,0.0,0.0,0.0,0.0,0.0,0.001,2.3899364722696383e-05,1.3242842477117632e-06,0.0,0.0,0.0,-2.0814346460022656e-06,0.0,0.0,0.0,0.0,0.0,0.0,0.0,0.0,0.0,0.0,0.0,0.0,0.0,0.0,0.0,0.0,0.0,0.0,0.0,0.0,0.0,0.0,0.0,0.0,0.0,0.0,0.0,0.0,0.0,0.0,0.0,0.0,0.0,0.0,0.0,0.0
277370000000,8309,277369000000,odom,base_footprint,-0.9657781713708602,-0.4940236136476894,-0.001001406618957812,-3.1232672564009255e-05,0.003853076680464666,0.006253524844893847,0.9999730227619288,1e-05,0.0,0.0,0.0,0.0,0.0,0.0,1e-05,0.0,0.0,0.0,0.0,0.0,0.0,1000000000000.0,0.0,0.0,0.0,0.0,0.0,0.0,1000000000000.0,0.0,0.0,0.0,0.0,0.0,0.0,1000000000000.0,0.0,0.0,0.0,0.0,0.0,0.0,0.001,2.390302698265183e-05,1.3242593535638563e-06,0.0,0.0,0.0,-2.0891291055702743e-06,0.0,0.0,0.0,0.0,0.0,0.0,0.0,0.0,0.0,0.0,0.0,0.0,0.0,0.0,0.0,0.0,0.0,0.0,0.0,0.0,0.0,0.0,0.0,0.0,0.0,0.0,0.0,0.0,0.0,0.0,0.0,0.0,0.0,0.0,0.0,0.0
277404000000,8310,277403000000,odom,base_footprint,-0.965777590410334,-0.494023589572033,-0.0010014066221820037,-3.123335290330786e-05,0.003853076698999075,0.006253699859726334,0.9999730216673317,1e-05,0.0,0.0,0.0,0.0,0.0,0.0,1e-05,0.0,0.0,0.0,0.0,0.0,0.0,1000000000000.0,0.0,0.0,0.0,0.0,0.0,0.0,1000000000000.0,0.0,0.0,0.0,0.0,0.0,0.0,1000000000000.0,0.0,0.0,0.0,0.0,0.0,0.0,0.001,2.390680095953294e-05,1.3242337170786078e-06,0.0,0.0,0.0,-2.0970595437302374e-06,0.0,0.0,0.0,0.0,0.0,0.0,0.0,0.0,0.0,0.0,0.0,0.0,0.0,0.0,0.0,0.0,0.0,0.0,0.0,0.0,0.0,0.0,0.0,0.0,0.0,0.0,0.0,0.0,0.0,0.0,0.0,0.0,0.0,0.0,0.0,0.0
277437000000,8311,277436000000,odom,base_footprint,-0.965777026430367,-0.4940235662029937,-0.0010014066253122324,-3.123401274853189e-05,0.003853076716998624,0.006253869601039715,0.9999730206056875,1e-05,0.0,0.0,0.0,0.0,0.0,0.0,1e-05,0.0,0.0,0.0,0.0,0.0,0.0,1000000000000.0,0.0,0.0,0.0,0.0,0.0,0.0,1000000000000.0,0.0,0.0,0.0,0.0,0.0,0.0,1000000000000.0,0.0,0.0,0.0,0.0,0.0,0.0,0.001,2.391046470623788e-05,1.3242088045420783e-06,0.0,0.0,0.0,-2.104759766672011e-06,0.0,0.0,0.0,0.0,0.0,0.0,0.0,0.0,0.0,0.0,0.0,0.0,0.0,0.0,0.0,0.0,0.0,0.0,0.0,0.0,0.0,0.0,0.0,0.0,0.0,0.0,0.0,0.0,0.0,0.0,0.0,0.0,0.0,0.0,0.0,0.0
277470000000,8312,277469000000,odom,base_footprint,-0.965776462345453,-0.4940235428324861,-0.0010014066284433666,-3.1234672116813525e-05,0.0038530767350086663,0.006254039218165528,0.9999730195447912,1e-05,0.0,0.0,0.0,0.0,0.0,0.0,1e-05,0.0,0.0,0.0,0.0,0.0,0.0,1000000000000.0,0.0,0.0,0.0,0.0,0.0,0.0,1000000000000.0,0.0,0.0,0.0,0.0,0.0,0.0,1000000000000.0,0.0,0.0,0.0,0.0,0.0,0.0,0.001,2.3914129126826783e-05,1.324183929716961e-06,0.0,0.0,0.0,-2.1124631883405907e-06,0.0,0.0,0.0,0.0,0.0,0.0,0.0,0.0,0.0,0.0,0.0,0.0,0.0,0.0,0.0,0.0,0.0,0.0,0.0,0.0,0.0,0.0,0.0,0.0,0.0,0.0,0.0,0.0,0.0,0.0,0.0,0.0,0.0,0.0,0.0,0.0
277504000000,8313,277503000000,odom,base_footprint,-0.9657758810572699,-0.49402351875224504,-0.0010014066316702958,-3.123535096700599e-05,0.0038530767535750856,0.006254213845268964,0.9999730184525288,1e-05,0.0,0.0,0.0,0.0,0.0,0.0,1e-05,0.0,0.0,0.0,0.0,0.0,0.0,1000000000000.0,0.0,0.0,0.0,0.0,0.0,0.0,1000000000000.0,0.0,0.0,0.0,0.0,0.0,0.0,1000000000000.0,0.0,0.0,0.0,0.0,0.0,0.0,0.001,2.3917905421196254e-05,1.324158247685102e-06,0.0,0.0,0.0,-2.12040315327705e-06,0.0,0.0,0.0,0.0,0.0,0.0,0.0,0.0,0.0,0.0,0.0,0.0,0.0,0.0,0.0,0.0,0.0,0.0,0.0,0.0,0.0,0.0,0.0,0.0,0.0,0.0,0.0,0.0,0.0,0.0,0.0,0.0,0.0,0.0,0.0,0.0
277537000000,8314,277536000000,odom,base_footprint,-0.9657753167592188,-0.49402349537875545,-0.0010014066348032029,-3.123600936656901e-05,0.003853076771606103,0.006254383210122492,0.9999730173931519,1e-05,0.0,0.0,0.0,0.0,0.0,0.0,1e-05,0.0,0.0,0.0,0.0,0.0,0.0,1000000000000.0,0.0,0.0,0.0,0.0,0.0,0.0,1000000000000.0,0.0,0.0,0.0,0.0,0.0,0.0,1000000000000.0,0.0,0.0,0.0,0.0,0.0,0.0,0.001,2.392156990712414e-05,1.3241332426146535e-06,0.0,0.0,0.0,-2.1281125668008638e-06,0.0,0.0,0.0,0.0,0.0,0.0,0.0,0.0,0.0,0.0,0.0,0.0,0.0,0.0,0.0,0.0,0.0,0.0,0.0,0.0,0.0,0.0,0.0,0.0,0.0,0.0,0.0,0.0,0.0,0.0,0.0,0.0,0.0,0.0,0.0,0.0
277570000000,8315,277569000000,odom,base_footprint,-0.9657747523561571,-0.4940234720037969,-0.0010014066379369947,-3.123666728882034e-05,0.0038530767896472113,0.006254552450659233,0.9999730163345237,1e-05,0.0,0.0,0.0,0.0,0.0,0.0,1e-05,0.0,0.0,0.0,0.0,0.0,0.0,1000000000000.0,0.0,0.0,0.0,0.0,0.0,0.0,1000000000000.0,0.0,0.0,0.0,0.0,0.0,0.0,1000000000000.0,0.0,0.0,0.0,0.0,0.0,0.0,0.001,2.3925236573331e-05,1.3241083283094792e-06,0.0,0.0,0.0,-2.1358249470595065e-06,0.0,0.0,0.0,0.0,0.0,0.0,0.0,0.0,0.0,0.0,0.0,0.0,0.0,0.0,0.0,0.0,0.0,0.0,0.0,0.0,0.0,0.0,0.0,0.0,0.0,0.0,0.0,0.0,0.0,0.0,0.0,0.0,0.0,0.0,0.0,0.0
277604000000,8316,277603000000,odom,base_footprint,-0.965774170740119,-0.4940234479189698,-0.001001406641166682,-3.123734464863232e-05,0.003853076808245957,0.006254726689623078,0.9999730152445996,1e-05,0.0,0.0,0.0,0.0,0.0,0.0,1e-05,0.0,0.0,0.0,0.0,0.0,0.0,1000000000000.0,0.0,0.0,0.0,0.0,0.0,0.0,1000000000000.0,0.0,0.0,0.0,0.0,0.0,0.0,1000000000000.0,0.0,0.0,0.0,0.0,0.0,0.0,0.001,2.3929015101712843e-05,1.3240826250834073e-06,0.0,0.0,0.0,-2.143774131686683e-06,0.0,0.0,0.0,0.0,0.0,0.0,0.0,0.0,0.0,0.0,0.0,0.0,0.0,0.0,0.0,0.0,0.0,0.0,0.0,0.0,0.0,0.0,0.0,0.0,0.0,0.0,0.0,0.0,0.0,0.0,0.0,0.0,0.0,0.0,0.0,0.0
277637000000,8317,277636000000,odom,base_footprint,-0.9657736061237906,-0.49402342454102816,-0.0010014066443022815,-3.123800160116571e-05,0.0038530768263082193,0.006254895677620554,0.999973014187493,1e-05,0.0,0.0,0.0,0.0,0.0,0.0,1e-05,0.0,0.0,0.0,0.0,0.0,0.0,1000000000000.0,0.0,0.0,0.0,0.0,0.0,0.0,1000000000000.0,0.0,0.0,0.0,0.0,0.0,0.0,1000000000000.0,0.0,0.0,0.0,0.0,0.0,0.0,0.001,2.393268323078018e-05,1.324057691061847e-06,0.0,0.0,0.0,-2.1514925225934256e-06,0.0,0.0,0.0,0.0,0.0,0.0,0.0,0.0,0.0,0.0,0.0,0.0,0.0,0.0,0.0,0.0,0.0,0.0,0.0,0.0,0.0,0.0,0.0,0.0,0.0,0.0,0.0,0.0,0.0,0.0,0.0,0.0,0.0,0.0,0.0,0.0
277670000000,8318,277669000000,odom,base_footprint,-0.9657730414023886,-0.49402340116161714,-0.0010014066474387379,-3.123865807589362e-05,0.0038530768443806465,0.006255064541167225,0.9999730131311363,1e-05,0.0,0.0,0.0,0.0,0.0,0.0,1e-05,0.0,0.0,0.0,0.0,0.0,0.0,1000000000000.0,0.0,0.0,0.0,0.0,0.0,0.0,1000000000000.0,0.0,0.0,0.0,0.0,0.0,0.0,1000000000000.0,0.0,0.0,0.0,0.0,0.0,0.0,0.001,2.3936352068378678e-05,1.3240327299157326e-06,0.0,0.0,0.0,-2.159214063875801e-06,0.0,0.0,0.0,0.0,0.0,0.0,0.0,0.0,0.0,0.0,0.0,0.0,0.0,0.0,0.0,0.0,0.0,0.0,0.0,0.0,0.0,0.0,0.0,0.0,0.0,0.0,0.0,0.0,0.0,0.0,0.0,0.0,0.0,0.0,0.0,0.0
277704000000,8319,277703000000,odom,base_footprint,-0.9657724594582967,-0.4940233770722019,-0.00100140665067118,-3.123933394395939e-05,0.003853076863011618,0.006255238391579893,0.9999730120435532,1e-05,0.0,0.0,0.0,0.0,0.0,0.0,1e-05,0.0,0.0,0.0,0.0,0.0,0.0,1000000000000.0,0.0,0.0,0.0,0.0,0.0,0.0,1000000000000.0,0.0,0.0,0.0,0.0,0.0,0.0,1000000000000.0,0.0,0.0,0.0,0.0,0.0,0.0,0.001,2.3940132880154042e-05,1.3240070306197942e-06,0.0,0.0,0.0,-2.1671726416431025e-06,0.0,0.0,0.0,0.0,0.0,0.0,0.0,0.0,0.0,0.0,0.0,0.0,0.0,0.0,0.0,0.0,0.0,0.0,0.0,0.0,0.0,0.0,0.0,0.0,0.0,0.0,0.0,0.0,0.0,0.0,0.0,0.0,0.0,0.0,0.0,0.0
277737000000,8320,277736000000,odom,base_footprint,-0.9657718945234988,-0.4940233536898067,-0.0010014066538094474,-3.1239989448261466e-05,0.0038530768811050487,0.006255407002320984,0.9999730109887199,1e-05,0.0,0.0,0.0,0.0,0.0,0.0,1e-05,0.0,0.0,0.0,0.0,0.0,0.0,1000000000000.0,0.0,0.0,0.0,0.0,0.0,0.0,1000000000000.0,0.0,0.0,0.0,0.0,0.0,0.0,1000000000000.0,0.0,0.0,0.0,0.0,0.0,0.0,0.001,2.394380322444014e-05,1.3239820367790698e-06,0.0,0.0,0.0,-2.174899914634419e-06,0.0,0.0,0.0,0.0,0.0,0.0,0.0,0.0,0.0,0.0,0.0,0.0,0.0,0.0,0.0,0.0,0.0,0.0,0.0,0.0,0.0,0.0,0.0,0.0,0.0,0.0,0.0,0.0,0.0,0.0,0.0,0.0,0.0,0.0,0.0,0.0
277770000000,8321,277769000000,odom,base_footprint,-0.9657713294835635,-0.4940233303059415,-0.001001406656948603,-3.1240644474292684e-05,0.003853076899208883,0.006255575488479674,0.9999730099346378,1e-05,0.0,0.0,0.0,0.0,0.0,0.0,1e-05,0.0,0.0,0.0,0.0,0.0,0.0,1000000000000.0,0.0,0.0,0.0,0.0,0.0,0.0,1000000000000.0,0.0,0.0,0.0,0.0,0.0,0.0,1000000000000.0,0.0,0.0,0.0,0.0,0.0,0.0,0.001,2.3947474281627907e-05,1.3239570956722334e-06,0.0,0.0,0.0,-2.1826303288711183e-06,0.0,0.0,0.0,0.0,0.0,0.0,0.0,0.0,0.0,0.0,0.0,0.0,0.0,0.0,0.0,0.0,0.0,0.0,0.0,0.0,0.0,0.0,0.0,0.0,0.0,0.0,0.0,0.0,0.0,0.0,0.0,0.0,0.0,0.0,0.0,0.0
277804000000,8322,277803000000,odom,base_footprint,-0.9657707472112194,-0.4940233062119364,-0.0010014066601838033,-3.1241318849295336e-05,0.003853076917872134,0.0062557489499340336,0.999973008849399,1e-05,0.0,0.0,0.0,0.0,0.0,0.0,1e-05,0.0,0.0,0.0,0.0,0.0,0.0,1000000000000.0,0.0,0.0,0.0,0.0,0.0,0.0,1000000000000.0,0.0,0.0,0.0,0.0,0.0,0.0,1000000000000.0,0.0,0.0,0.0,0.0,0.0,0.0,0.001,2.3951257345307968e-05,1.3239313218269025e-06,0.0,0.0,0.0,-2.1905979187615547e-06,0.0,0.0,0.0,0.0,0.0,0.0,0.0,0.0,0.0,0.0,0.0,0.0,0.0,0.0,0.0,0.0,0.0,0.0,0.0,0.0,0.0,0.0,0.0,0.0,0.0,0.0,0.0,0.0,0.0,0.0,0.0,0.0,0.0,0.0,0.0,0.0
277837000000,8323,277836000000,odom,base_footprint,-0.9657701819577589,-0.49402328282508595,-0.0010014066633247665,-3.124197290382735e-05,0.0038530769359968603,0.006255917183019674,0.9999730077968423,1e-05,0.0,0.0,0.0,0.0,0.0,0.0,1e-05,0.0,0.0,0.0,0.0,0.0,0.0,1000000000000.0,0.0,0.0,0.0,0.0,0.0,0.0,1000000000000.0,0.0,0.0,0.0,0.0,0.0,0.0,1000000000000.0,0.0,0.0,0.0,0.0,0.0,0.0,0.001,2.3954929921579933e-05,1.323906383601609e-06,0.0,0.0,0.0,-2.1983348173132143e-06,0.0,0.0,0.0,0.0,0.0,0.0,0.0,0.0,0.0,0.0,0.0,0.0,0.0,0.0,0.0,0.0,0.0,0.0,0.0,0.0,0.0,0.0,0.0,0.0,0.0,0.0,0.0,0.0,0.0,0.0,0.0,0.0,0.0,0.0,0.0,0.0
277870000000,8324,277869000000,odom,base_footprint,-0.9657696165990974,-0.4940232594367648,-0.0010014066664666109,-3.124262647974592e-05,0.0038530769541320264,0.006256085291394703,0.9999730067450375,1e-05,0.0,0.0,0.0,0.0,0.0,0.0,1e-05,0.0,0.0,0.0,0.0,0.0,0.0,1000000000000.0,0.0,0.0,0.0,0.0,0.0,0.0,1000000000000.0,0.0,0.0,0.0,0.0,0.0,0.0,1000000000000.0,0.0,0.0,0.0,0.0,0.0,0.0,0.001,2.3958603135422726e-05,1.3238813996938959e-06,0.0,0.0,0.0,-2.2060739747403133e-06,0.0,0.0,0.0,0.0,0.0,0.0,0.0,0.0,0.0,0.0,0.0,0.0,0.0,0.0,0.0,0.0,0.0,0.0,0.0,0.0,0.0,0.0,0.0,0.0,0.0,0.0,0.0,0.0,0.0,0.0,0.0,0.0,0.0,0.0,0.0,0.0
277904000000,8325,277903000000,odom,base_footprint,-0.9657690339983023,-0.49402323533816817,-0.0010014066697046006,-3.124329936023705e-05,0.00385307697282761,0.006256258363478582,0.9999730056621464,1e-05,0.0,0.0,0.0,0.0,0.0,0.0,1e-05,0.0,0.0,0.0,0.0,0.0,0.0,1000000000000.0,0.0,0.0,0.0,0.0,0.0,0.0,1000000000000.0,0.0,0.0,0.0,0.0,0.0,0.0,1000000000000.0,0.0,0.0,0.0,0.0,0.0,0.0,0.001,2.396238849406291e-05,1.3238556097827774e-06,0.0,0.0,0.0,-2.214051357140643e-06,0.0,0.0,0.0,0.0,0.0,0.0,0.0,0.0,0.0,0.0,0.0,0.0,0.0,0.0,0.0,0.0,0.0,0.0,0.0,0.0,0.0,0.0,0.0,0.0,0.0,0.0,0.0,0.0,0.0,0.0,0.0,0.0,0.0,0.0,0.0,0.0
277937000000,8326,277936000000,odom,base_footprint,-0.9657684684259865,-0.4940232119468606,-0.0010014066728482526,-3.124395196385653e-05,0.0038530769909837746,0.006256426218515381,0.9999730046118693,1e-05,0.0,0.0,0.0,0.0,0.0,0.0,1e-05,0.0,0.0,0.0,0.0,0.0,0.0,1000000000000.0,0.0,0.0,0.0,0.0,0.0,0.0,1000000000000.0,0.0,0.0,0.0,0.0,0.0,0.0,1000000000000.0,0.0,0.0,0.0,0.0,0.0,0.0,0.001,2.3966063253216708e-05,1.3238306073276765e-06,0.0,0.0,0.0,-2.22179685391064e-06,0.0,0.0,0.0,0.0,0.0,0.0,0.0,0.0,0.0,0.0,0.0,0.0,0.0,0.0,0.0,0.0,0.0,0.0,0.0,0.0,0.0,0.0,0.0,0.0,0.0,0.0,0.0,0.0,0.0,0.0,0.0,0.0,0.0,0.0,0.0,0.0
277970000000,8327,277969000000,odom,base_footprint,-0.9657679027484058,-0.49402318855408184,-0.0010014066759927824,-3.1244604088276676e-05,0.003853077009150307,0.0062565939487073926,0.9999730035623448,1e-05,0.0,0.0,0.0,0.0,0.0,0.0,1e-05,0.0,0.0,0.0,0.0,0.0,0.0,1000000000000.0,0.0,0.0,0.0,0.0,0.0,0.0,1000000000000.0,0.0,0.0,0.0,0.0,0.0,0.0,1000000000000.0,0.0,0.0,0.0,0.0,0.0,0.0,0.001,2.3969738732406712e-05,1.3238055728344613e-06,0.0,0.0,0.0,-2.229545378660759e-06,0.0,0.0,0.0,0.0,0.0,0.0,0.0,0.0,0.0,0.0,0.0,0.0,0.0,0.0,0.0,0.0,0.0,0.0,0.0,0.0,0.0,0.0,0.0,0.0,0.0,0.0,0.0,0.0,0.0,0.0,0.0,0.0,0.0,0.0,0.0,0.0
278004000000,8328,278003000000,odom,base_footprint,-0.9657673198189607,-0.49402316445089195,-0.0010014066792335512,-3.1245275472816314e-05,0.003853077027878178,0.006256766631011053,0.9999730024818045,1e-05,0.0,0.0,0.0,0.0,0.0,0.0,1e-05,0.0,0.0,0.0,0.0,0.0,0.0,1000000000000.0,0.0,0.0,0.0,0.0,0.0,0.0,1000000000000.0,0.0,0.0,0.0,0.0,0.0,0.0,1000000000000.0,0.0,0.0,0.0,0.0,0.0,0.0,0.001,2.397352491950586e-05,1.3237797047581542e-06,0.0,0.0,0.0,-2.2375315242008067e-06,0.0,0.0,0.0,0.0,0.0,0.0,0.0,0.0,0.0,0.0,0.0,0.0,0.0,0.0,0.0,0.0,0.0,0.0,0.0,0.0,0.0,0.0,0.0,0.0,0.0,0.0,0.0,0.0,0.0,0.0,0.0,0.0,0.0,0.0,0.0,0.0
278037000000,8329,278036000000,odom,base_footprint,-0.9657667539275963,-0.4940231410551257,-0.001001406682379899,-3.1245926623980254e-05,0.0038530770460658017,0.006256934107598645,0.9999730014338098,1e-05,0.0,0.0,0.0,0.0,0.0,0.0,1e-05,0.0,0.0,0.0,0.0,0.0,0.0,1000000000000.0,0.0,0.0,0.0,0.0,0.0,0.0,1000000000000.0,0.0,0.0,0.0,0.0,0.0,0.0,1000000000000.0,0.0,0.0,0.0,0.0,0.0,0.0,0.001,2.397720184171197e-05,1.323754662017108e-06,0.0,0.0,0.0,-2.245286275613554e-06,0.0,0.0,0.0,0.0,0.0,0.0,0.0,0.0,0.0,0.0,0.0,0.0,0.0,0.0,0.0,0.0,0.0,0.0,0.0,0.0,0.0,0.0,0.0,0.0,0.0,0.0,0.0,0.0,0.0,0.0,0.0,0.0,0.0,0.0,0.0,0.0
278070000000,8330,278069000000,odom,base_footprint,-0.965766187930904,-0.49402311765788764,-0.0010014066855271349,-3.124657729559339e-05,0.0038530770642638,0.006257101459210904,0.9999730003865692,1e-05,0.0,0.0,0.0,0.0,0.0,0.0,1e-05,0.0,0.0,0.0,0.0,0.0,0.0,1000000000000.0,0.0,0.0,0.0,0.0,0.0,0.0,1000000000000.0,0.0,0.0,0.0,0.0,0.0,0.0,1000000000000.0,0.0,0.0,0.0,0.0,0.0,0.0,0.001,2.398087951217445e-05,1.3237296239034417e-06,0.0,0.0,0.0,-2.2530438489378595e-06,0.0,0.0,0.0,0.0,0.0,0.0,0.0,0.0,0.0,0.0,0.0,0.0,0.0,0.0,0.0,0.0,0.0,0.0,0.0,0.0,0.0,0.0,0.0,0.0,0.0,0.0,0.0,0.0,0.0,0.0,0.0,0.0,0.0,0.0,0.0,0.0
278104000000,8331,278103000000,odom,base_footprint,-0.9657656046726099,-0.49402309355010293,-0.0010014066887706757,-3.124724718265865e-05,0.0038530770830239682,0.006257273751324752,0.9999729993083828,1e-05,0.0,0.0,0.0,0.0,0.0,0.0,1e-05,0.0,0.0,0.0,0.0,0.0,0.0,1000000000000.0,0.0,0.0,0.0,0.0,0.0,0.0,1000000000000.0,0.0,0.0,0.0,0.0,0.0,0.0,1000000000000.0,0.0,0.0,0.0,0.0,0.0,0.0,0.001,2.3984669399367154e-05,1.3237038207414958e-06,0.0,0.0,0.0,-2.2610393966570445e-06,0.0,0.0,0.0,0.0,0.0,0.0,0.0,0.0,0.0,0.0,0.0,0.0,0.0,0.0,0.0,0.0,0.0,0.0,0.0,0.0,0.0,0.0,0.0,0.0,0.0,0.0,0.0,0.0,0.0,0.0,0.0,0.0,0.0,0.0,0.0,0.0
278137000000,8332,278136000000,odom,base_footprint,-0.9657650384620042,-0.49402307014987623,-0.0010014066919197331,-3.124789688001652e-05,0.003853077101243008,0.006257440849065881,0.9999729982626738,1e-05,0.0,0.0,0.0,0.0,0.0,0.0,1e-05,0.0,0.0,0.0,0.0,0.0,0.0,1000000000000.0,0.0,0.0,0.0,0.0,0.0,0.0,1000000000000.0,0.0,0.0,0.0,0.0,0.0,0.0,1000000000000.0,0.0,0.0,0.0,0.0,0.0,0.0,0.001,2.3988348572740755e-05,1.3236787403603586e-06,0.0,0.0,0.0,-2.2688029754194995e-06,0.0,0.0,0.0,0.0,0.0,0.0,0.0,0.0,0.0,0.0,0.0,0.0,0.0,0.0,0.0,0.0,0.0,0.0,0.0,0.0,0.0,0.0,0.0,0.0,0.0,0.0,0.0,0.0,0.0,0.0,0.0,0.0,0.0,0.0,0.0,0.0
278170000000,8333,278169000000,odom,base_footprint,-0.9657644721460061,-0.49402304674817726,-0.0010014066950696648,-3.1248546097248215e-05,0.003853077119472359,0.006257607821699823,0.9999729972177196,1e-05,0.0,0.0,0.0,0.0,0.0,0.0,1e-05,0.0,0.0,0.0,0.0,0.0,0.0,1000000000000.0,0.0,0.0,0.0,0.0,0.0,0.0,1000000000000.0,0.0,0.0,0.0,0.0,0.0,0.0,1000000000000.0,0.0,0.0,0.0,0.0,0.0,0.0,0.001,2.399202846967853e-05,1.3236536672098802e-06,0.0,0.0,0.0,-2.2765695760255958e-06,0.0,0.0,0.0,0.0,0.0,0.0,0.0,0.0,0.0,0.0,0.0,0.0,0.0,0.0,0.0,0.0,0.0,0.0,0.0,0.0,0.0,0.0,0.0,0.0,0.0,0.0,0.0,0.0,0.0,0.0,0.0,0.0,0.0,0.0,0.0,0.0
278204000000,8334,278203000000,odom,base_footprint,-0.965763888558664,-0.4940230226357958,-0.001001406698316016,-3.1249214485476396e-05,0.003853077138265137,0.006257779723213896,0.9999729961418904,1e-05,0.0,0.0,0.0,0.0,0.0,0.0,1e-05,0.0,0.0,0.0,0.0,0.0,0.0,1000000000000.0,0.0,0.0,0.0,0.0,0.0,0.0,1000000000000.0,0.0,0.0,0.0,0.0,0.0,0.0,1000000000000.0,0.0,0.0,0.0,0.0,0.0,0.0,0.001,2.3995820611724683e-05,1.323627832639188e-06,0.0,0.0,0.0,-2.284574524153775e-06,0.0,0.0,0.0,0.0,0.0,0.0,0.0,0.0,0.0,0.0,0.0,0.0,0.0,0.0,0.0,0.0,0.0,0.0,0.0,0.0,0.0,0.0,0.0,0.0,0.0,0.0,0.0,0.0,0.0,0.0,0.0,0.0,0.0,0.0,0.0,0.0
278237000000,8335,278236000000,odom,base_footprint,-0.9657633220286231,-0.494022999231107,-0.0010014067014677656,-3.124986272760614e-05,0.0038530771565155825,0.006257946441710261,0.99997299509847,1e-05,0.0,0.0,0.0,0.0,0.0,0.0,1e-05,0.0,0.0,0.0,0.0,0.0,0.0,1000000000000.0,0.0,0.0,0.0,0.0,0.0,0.0,1000000000000.0,0.0,0.0,0.0,0.0,0.0,0.0,1000000000000.0,0.0,0.0,0.0,0.0,0.0,0.0,0.001,2.399950197271471e-05,1.3236027431762502e-06,0.0,0.0,0.0,-2.2923470905931047e-06,0.0,0.0,0.0,0.0,0.0,0.0,0.0,0.0,0.0,0.0,0.0,0.0,0.0,0.0,0.0,0.0,0.0,0.0,0.0,0.0,0.0,0.0,0.0,0.0,0.0,0.0,0.0,0.0,0.0,0.0,0.0,0.0,0.0,0.0,0.0,0.0
278270000000,8336,278269000000,odom,base_footprint,-0.9657627553931265,-0.4940229758249455,-0.0010014067046204243,-3.1250510489131416e-05,0.0038530771747764306,0.006258113034968691,0.9999729940558056,1e-05,0.0,0.0,0.0,0.0,0.0,0.0,1e-05,0.0,0.0,0.0,0.0,0.0,0.0,1000000000000.0,0.0,0.0,0.0,0.0,0.0,0.0,1000000000000.0,0.0,0.0,0.0,0.0,0.0,0.0,1000000000000.0,0.0,0.0,0.0,0.0,0.0,0.0,0.001,2.4003184101851094e-05,1.3235776304669295e-06,0.0,0.0,0.0,-2.3001227918443567e-06,0.0,0.0,0.0,0.0,0.0,0.0,0.0,0.0,0.0,0.0,0.0,0.0,0.0,0.0,0.0,0.0,0.0,0.0,0.0,0.0,0.0,0.0,0.0,0.0,0.0,0.0,0.0,0.0,0.0,0.0,0.0,0.0,0.0,0.0,0.0,0.0
278304000000,8337,278303000000,odom,base_footprint,-0.9657621714765368,-0.4940229517079656,-0.0010014067078695545,-3.125117737697756e-05,0.0038530771936015383,0.006258284545473139,0.9999729929823367,1e-05,0.0,0.0,0.0,0.0,0.0,0.0,1e-05,0.0,0.0,0.0,0.0,0.0,0.0,1000000000000.0,0.0,0.0,0.0,0.0,0.0,0.0,1000000000000.0,0.0,0.0,0.0,0.0,0.0,0.0,1000000000000.0,0.0,0.0,0.0,0.0,0.0,0.0,0.001,2.4006978536946676e-05,1.3235517813156424e-06,0.0,0.0,0.0,-2.3081371447843856e-06,0.0,0.0,0.0,0.0,0.0,0.0,0.0,0.0,0.0,0.0,0.0,0.0,0.0,0.0,0.0,0.0,0.0,0.0,0.0,0.0,0.0,0.0,0.0,0.0,0.0,0.0,0.0,0.0,0.0,0.0,0.0,0.0,0.0,0.0,0.0,0.0
278337000000,8338,278336000000,odom,base_footprint,-0.9657616046268677,-0.49402292829881306,-0.0010014067110240311,-3.1251824162328684e-05,0.003853077211883577,0.006258450884326431,0.9999729919412079,1e-05,0.0,0.0,0.0,0.0,0.0,0.0,1e-05,0.0,0.0,0.0,0.0,0.0,0.0,1000000000000.0,0.0,0.0,0.0,0.0,0.0,0.0,1000000000000.0,0.0,0.0,0.0,0.0,0.0,0.0,1000000000000.0,0.0,0.0,0.0,0.0,0.0,0.0,0.001,2.401066213166383e-05,1.323526664383024e-06,0.0,0.0,0.0,-2.315918710012683e-06,0.0,0.0,0.0,0.0,0.0,0.0,0.0,0.0,0.0,0.0,0.0,0.0,0.0,0.0,0.0,0.0,0.0,0.0,0.0,0.0,0.0,0.0,0.0,0.0,0.0,0.0,0.0,0.0,0.0,0.0,0.0,0.0,0.0,0.0,0.0,0.0
278370000000,8339,278369000000,odom,base_footprint,-0.9657610376716783,-0.494022904888187,-0.001001406714179396,-3.125247046665742e-05,0.0038530772301759494,0.006258617097810264,0.9999729909008365,1e-05,0.0,0.0,0.0,0.0,0.0,0.0,1e-05,0.0,0.0,0.0,0.0,0.0,0.0,1000000000000.0,0.0,0.0,0.0,0.0,0.0,0.0,1000000000000.0,0.0,0.0,0.0,0.0,0.0,0.0,1000000000000.0,0.0,0.0,0.0,0.0,0.0,0.0,0.001,2.4014346429120973e-05,1.3235015396519868e-06,0.0,0.0,0.0,-2.323703541167037e-06,0.0,0.0,0.0,0.0,0.0,0.0,0.0,0.0,0.0,0.0,0.0,0.0,0.0,0.0,0.0,0.0,0.0,0.0,0.0,0.0,0.0,0.0,0.0,0.0,0.0,0.0,0.0,0.0,0.0,0.0,0.0,0.0,0.0,0.0,0.0,0.0
278404000000,8340,278403000000,odom,base_footprint,-0.9657604534256423,-0.494022880766607,-0.0010014067174313225,-3.125313585260819e-05,0.003853077249033554,0.006258788216896076,0.9999729898297306,1e-05,0.0,0.0,0.0,0.0,0.0,0.0,1e-05,0.0,0.0,0.0,0.0,0.0,0.0,1000000000000.0,0.0,0.0,0.0,0.0,0.0,0.0,1000000000000.0,0.0,0.0,0.0,0.0,0.0,0.0,1000000000000.0,0.0,0.0,0.0,0.0,0.0,0.0,0.001,2.4018143180179897e-05,1.323475644709201e-06,0.0,0.0,0.0,-2.3317269211932647e-06,0.0,0.0,0.0,0.0,0.0,0.0,0.0,0.0,0.0,0.0,0.0,0.0,0.0,0.0,0.0,0.0,0.0,0.0,0.0,0.0,0.0,0.0,0.0,0.0,0.0,0.0,0.0,0.0,0.0,0.0,0.0,0.0,0.0,0.0,0.0,0.0
278437000000,8341,278436000000,odom,base_footprint,-0.9657598862561508,-0.494022857352989,-0.0010014067205885158,-3.125378117981783e-05,0.003853077267347071,0.006258954175709613,0.9999729887908971,1e-05,0.0,0.0,0.0,0.0,0.0,0.0,1e-05,0.0,0.0,0.0,0.0,0.0,0.0,1000000000000.0,0.0,0.0,0.0,0.0,0.0,0.0,1000000000000.0,0.0,0.0,0.0,0.0,0.0,0.0,1000000000000.0,0.0,0.0,0.0,0.0,0.0,0.0,0.001,2.402182894666293e-05,1.3234505252768846e-06,0.0,0.0,0.0,-2.3395176802469135e-06,0.0,0.0,0.0,0.0,0.0,0.0,0.0,0.0,0.0,0.0,0.0,0.0,0.0,0.0,0.0,0.0,0.0,0.0,0.0,0.0,0.0,0.0,0.0,0.0,0.0,0.0,0.0,0.0,0.0,0.0,0.0,0.0,0.0,0.0,0.0,0.0
278470000000,8342,278469000000,odom,base_footprint,-0.9657593189810759,-0.494022833937897,-0.0010014067237466007,-3.125442602536171e-05,0.0038530772856710444,0.006259120009022753,0.9999729877528214,1e-05,0.0,0.0,0.0,0.0,0.0,0.0,1e-05,0.0,0.0,0.0,0.0,0.0,0.0,1000000000000.0,0.0,0.0,0.0,0.0,0.0,0.0,1000000000000.0,0.0,0.0,0.0,0.0,0.0,0.0,1000000000000.0,0.0,0.0,0.0,0.0,0.0,0.0,0.001,2.4025514040961135e-05,1.3234252767994912e-06,0.0,0.0,0.0,-2.3473112336946457e-06,0.0,0.0,0.0,0.0,0.0,0.0,0.0,0.0,0.0,0.0,0.0,0.0,0.0,0.0,0.0,0.0,0.0,0.0,0.0,0.0,0.0,0.0,0.0,0.0,0.0,0.0,0.0,0.0,0.0,0.0,0.0,0.0,0.0,0.0,0.0,0.0
278504000000,8343,278503000000,odom,base_footprint,-0.9657587344053934,-0.49402280981171487,-0.00100140672700132,-3.125508990791763e-05,0.0038530773045611258,0.006259290736278438,0.9999729866840821,1e-05,0.0,0.0,0.0,0.0,0.0,0.0,1e-05,0.0,0.0,0.0,0.0,0.0,0.0,1000000000000.0,0.0,0.0,0.0,0.0,0.0,0.0,1000000000000.0,0.0,0.0,0.0,0.0,0.0,0.0,1000000000000.0,0.0,0.0,0.0,0.0,0.0,0.0,0.001,2.4029313050213715e-05,1.3233993584096418e-06,0.0,0.0,0.0,-2.3553442918575548e-06,0.0,0.0,0.0,0.0,0.0,0.0,0.0,0.0,0.0,0.0,0.0,0.0,0.0,0.0,0.0,0.0,0.0,0.0,0.0,0.0,0.0,0.0,0.0,0.0,0.0,0.0,0.0,0.0,0.0,0.0,0.0,0.0,0.0,0.0,0.0,0.0
278537000000,8344,278536000000,odom,base_footprint,-0.9657581669158866,-0.49402278639362984,-0.0010014067301612369,-3.125573377537247e-05,0.003853077322906307,0.00625945631465403,0.9999729856475463,1e-05,0.0,0.0,0.0,0.0,0.0,0.0,1e-05,0.0,0.0,0.0,0.0,0.0,0.0,1000000000000.0,0.0,0.0,0.0,0.0,0.0,0.0,1000000000000.0,0.0,0.0,0.0,0.0,0.0,0.0,1000000000000.0,0.0,0.0,0.0,0.0,0.0,0.0,0.001,2.403300104546006e-05,1.3233741812868061e-06,0.0,0.0,0.0,-2.3631439192006613e-06,0.0,0.0,0.0,0.0,0.0,0.0,0.0,0.0,0.0,0.0,0.0,0.0,0.0,0.0,0.0,0.0,0.0,0.0,0.0,0.0,0.0,0.0,0.0,0.0,0.0,0.0,0.0,0.0,0.0,0.0,0.0,0.0,0.0,0.0,0.0,0.0
278570000000,8345,278569000000,odom,base_footprint,-0.9657575993207321,-0.49402276297407016,-0.0010014067333220453,-3.125637716078776e-05,0.00385307734126182,0.0062596217673969706,0.9999729846117696,1e-05,0.0,0.0,0.0,0.0,0.0,0.0,1e-05,0.0,0.0,0.0,0.0,0.0,0.0,1000000000000.0,0.0,0.0,0.0,0.0,0.0,0.0,1000000000000.0,0.0,0.0,0.0,0.0,0.0,0.0,1000000000000.0,0.0,0.0,0.0,0.0,0.0,0.0,0.001,2.403668982182759e-05,1.323349022917523e-06,0.0,0.0,0.0,-2.3709467635748067e-06,0.0,0.0,0.0,0.0,0.0,0.0,0.0,0.0,0.0,0.0,0.0,0.0,0.0,0.0,0.0,0.0,0.0,0.0,0.0,0.0,0.0,0.0,0.0,0.0,0.0,0.0,0.0,0.0,0.0,0.0,0.0,0.0,0.0,0.0,0.0,0.0
278604000000,8346,278603000000,odom,base_footprint,-0.9657570144152036,-0.4940227388432844,-0.0010014067365795715,-3.1257039538435245e-05,0.0038530773601844473,0.006259792102413077,0.9999729835454,1e-05,0.0,0.0,0.0,0.0,0.0,0.0,1e-05,0.0,0.0,0.0,0.0,0.0,0.0,1000000000000.0,0.0,0.0,0.0,0.0,0.0,0.0,1000000000000.0,0.0,0.0,0.0,0.0,0.0,0.0,1000000000000.0,0.0,0.0,0.0,0.0,0.0,0.0,0.001,2.4040491062615396e-05,1.3233230853262816e-06,0.0,0.0,0.0,-2.3789889714888663e-06,0.0,0.0,0.0,0.0,0.0,0.0,0.0,0.0,0.0,0.0,0.0,0.0,0.0,0.0,0.0,0.0,0.0,0.0,0.0,0.0,0.0,0.0,0.0,0.0,0.0,0.0,0.0,0.0,0.0,0.0,0.0,0.0,0.0,0.0,0.0,0.0
278637000000,8347,278636000000,odom,base_footprint,-0.9657564466054873,-0.4940227154207305,-0.0010014067397422048,-3.125768194470887e-05,0.003853077378561245,0.0062599572999513745,0.9999729825111653,1e-05,0.0,0.0,0.0,0.0,0.0,0.0,1e-05,0.0,0.0,0.0,0.0,0.0,0.0,1000000000000.0,0.0,0.0,0.0,0.0,0.0,0.0,1000000000000.0,0.0,0.0,0.0,0.0,0.0,0.0,1000000000000.0,0.0,0.0,0.0,0.0,0.0,0.0,0.001,2.4044181273596023e-05,1.3232979112588425e-06,0.0,0.0,0.0,-2.3867977570156396e-06,0.0,0.0,0.0,0.0,0.0,0.0,0.0,0.0,0.0,0.0,0.0,0.0,0.0,0.0,0.0,0.0,0.0,0.0,0.0,0.0,0.0,0.0,0.0,0.0,0.0,0.0,0.0,0.0,0.0,0.0,0.0,0.0,0.0,0.0,0.0,0.0
278670000000,8348,278669000000,odom,base_footprint,-0.9657558786900594,-0.4940226919967014,-0.0010014067429057437,-3.125832386853229e-05,0.0038530773969483764,0.006260122371724977,0.9999729814776904,1e-05,0.0,0.0,0.0,0.0,0.0,0.0,1e-05,0.0,0.0,0.0,0.0,0.0,0.0,1000000000000.0,0.0,0.0,0.0,0.0,0.0,0.0,1000000000000.0,0.0,0.0,0.0,0.0,0.0,0.0,1000000000000.0,0.0,0.0,0.0,0.0,0.0,0.0,0.001,2.4047872259169863e-05,1.323272694293908e-06,0.0,0.0,0.0,-2.394609693904019e-06,0.0,0.0,0.0,0.0,0.0,0.0,0.0,0.0,0.0,0.0,0.0,0.0,0.0,0.0,0.0,0.0,0.0,0.0,0.0,0.0,0.0,0.0,0.0,0.0,0.0,0.0,0.0,0.0,0.0,0.0,0.0,0.0,0.0,0.0,0.0,0.0
278704000000,8349,278703000000,odom,base_footprint,-0.9657552934544853,-0.4940226678613103,-0.0010014067461660801,-3.12589847397109e-05,0.0038530774159036426,0.00626029231408925,0.9999729804136935,1e-05,0.0,0.0,0.0,0.0,0.0,0.0,1e-05,0.0,0.0,0.0,0.0,0.0,0.0,1000000000000.0,0.0,0.0,0.0,0.0,0.0,0.0,1000000000000.0,0.0,0.0,0.0,0.0,0.0,0.0,1000000000000.0,0.0,0.0,0.0,0.0,0.0,0.0,0.001,2.40516758013559e-05,1.3232467150220985e-06,0.0,0.0,0.0,-2.4026612280148894e-06,0.0,0.0,0.0,0.0,0.0,0.0,0.0,0.0,0.0,0.0,0.0,0.0,0.0,0.0,0.0,0.0,0.0,0.0,0.0,0.0,0.0,0.0,0.0,0.0,0.0,0.0,0.0,0.0,0.0,0.0,0.0,0.0,0.0,0.0,0.0,0.0
278737000000,8350,278736000000,odom,base_footprint,-0.9657547253243657,-0.49402264443428584,-0.00100140674933143,-3.1259625683333954e-05,0.0038530774343119994,0.006260457130392968,0.9999729793817629,1e-05,0.0,0.0,0.0,0.0,0.0,0.0,1e-05,0.0,0.0,0.0,0.0,0.0,0.0,1000000000000.0,0.0,0.0,0.0,0.0,0.0,0.0,1000000000000.0,0.0,0.0,0.0,0.0,0.0,0.0,1000000000000.0,0.0,0.0,0.0,0.0,0.0,0.0,0.001,2.405536826341412e-05,1.3232214964650943e-06,0.0,0.0,0.0,-2.410478856587079e-06,0.0,0.0,0.0,0.0,0.0,0.0,0.0,0.0,0.0,0.0,0.0,0.0,0.0,0.0,0.0,0.0,0.0,0.0,0.0,0.0,0.0,0.0,0.0,0.0,0.0,0.0,0.0,0.0,0.0,0.0,0.0,0.0,0.0,0.0,0.0,0.0
278770000000,8351,278769000000,odom,base_footprint,-0.9657541570884701,-0.49402262100578587,-0.001001406752497696,-3.126026614385178e-05,0.0038530774527308948,0.006260621820800467,0.9999729783505933,1e-05,0.0,0.0,0.0,0.0,0.0,0.0,1e-05,0.0,0.0,0.0,0.0,0.0,0.0,1000000000000.0,0.0,0.0,0.0,0.0,0.0,0.0,1000000000000.0,0.0,0.0,0.0,0.0,0.0,0.0,1000000000000.0,0.0,0.0,0.0,0.0,0.0,0.0,0.001,2.4059061416252917e-05,1.3231962699386127e-06,0.0,0.0,0.0,-2.4182998639618824e-06,0.0,0.0,0.0,0.0,0.0,0.0,0.0,0.0,0.0,0.0,0.0,0.0,0.0,0.0,0.0,0.0,0.0,0.0,0.0,0.0,0.0,0.0,0.0,0.0,0.0,0.0,0.0,0.0,0.0,0.0,0.0,0.0,0.0,0.0,0.0,0.0
278804000000,8352,278803000000,odom,base_footprint,-0.9657535715226505,-0.49402259686578753,-0.0010014067557608426,-3.126092550710277e-05,0.003853077471718663,0.00626079137010492,0.9999729772889723,1e-05,0.0,0.0,0.0,0.0,0.0,0.0,1e-05,0.0,0.0,0.0,0.0,0.0,0.0,1000000000000.0,0.0,0.0,0.0,0.0,0.0,0.0,1000000000000.0,0.0,0.0,0.0,0.0,0.0,0.0,1000000000000.0,0.0,0.0,0.0,0.0,0.0,0.0,0.001,2.4062867270704147e-05,1.3231702938100913e-06,0.0,0.0,0.0,-2.426360922819035e-06,0.0,0.0,0.0,0.0,0.0,0.0,0.0,0.0,0.0,0.0,0.0,0.0,0.0,0.0,0.0,0.0,0.0,0.0,0.0,0.0,0.0,0.0,0.0,0.0,0.0,0.0,0.0,0.0,0.0,0.0,0.0,0.0,0.0,0.0,0.0,0.0
278837000000,8353,278836000000,odom,base_footprint,-0.9657530030719336,-0.4940225734342908,-0.0010014067589289369,-3.126156498656814e-05,0.0038530774901587668,0.0062609558047752095,0.9999729762593489,1e-05,0.0,0.0,0.0,0.0,0.0,0.0,1e-05,0.0,0.0,0.0,0.0,0.0,0.0,1000000000000.0,0.0,0.0,0.0,0.0,0.0,0.0,1000000000000.0,0.0,0.0,0.0,0.0,0.0,0.0,1000000000000.0,0.0,0.0,0.0,0.0,0.0,0.0,0.001,2.4066561948402812e-05,1.3231450383101786e-06,0.0,0.0,0.0,-2.434187710174228e-06,0.0,0.0,0.0,0.0,0.0,0.0,0.0,0.0,0.0,0.0,0.0,0.0,0.0,0.0,0.0,0.0,0.0,0.0,0.0,0.0,0.0,0.0,0.0,0.0,0.0,0.0,0.0,0.0,0.0,0.0,0.0,0.0,0.0,0.0,0.0,0.0
278870000000,8354,278869000000,odom,base_footprint,-0.9657524345153766,-0.49402255000131806,-0.0010014067620979158,-3.1262203982417315e-05,0.003853077508609189,0.00626112011341644,0.9999729752304873,1e-05,0.0,0.0,0.0,0.0,0.0,0.0,1e-05,0.0,0.0,0.0,0.0,0.0,0.0,1000000000000.0,0.0,0.0,0.0,0.0,0.0,0.0,1000000000000.0,0.0,0.0,0.0,0.0,0.0,0.0,1000000000000.0,0.0,0.0,0.0,0.0,0.0,0.0,0.001,2.4070257332703098e-05,1.3231197864897312e-06,0.0,0.0,0.0,-2.4420175658566347e-06,0.0,0.0,0.0,0.0,0.0,0.0,0.0,0.0,0.0,0.0,0.0,0.0,0.0,0.0,0.0,0.0,0.0,0.0,0.0,0.0,0.0,0.0,0.0,0.0,0.0,0.0,0.0,0.0,0.0,0.0,0.0,0.0,0.0,0.0,0.0,0.0
278904000000,8355,278903000000,odom,base_footprint,-0.9657518486191115,-0.4940225258567109,-0.001001406765363897,-3.1262861835982544e-05,0.0038530775276298048,0.006261289269248948,0.9999729741712455,1e-05,0.0,0.0,0.0,0.0,0.0,0.0,1e-05,0.0,0.0,0.0,0.0,0.0,0.0,1000000000000.0,0.0,0.0,0.0,0.0,0.0,0.0,1000000000000.0,0.0,0.0,0.0,0.0,0.0,0.0,1000000000000.0,0.0,0.0,0.0,0.0,0.0,0.0,0.001,2.407406547841353e-05,1.3230937706203186e-06,0.0,0.0,0.0,-2.450087830339693e-06,0.0,0.0,0.0,0.0,0.0,0.0,0.0,0.0,0.0,0.0,0.0,0.0,0.0,0.0,0.0,0.0,0.0,0.0,0.0,0.0,0.0,0.0,0.0,0.0,0.0,0.0,0.0,0.0,0.0,0.0,0.0,0.0,0.0,0.0,0.0,0.0
278937000000,8356,278936000000,odom,base_footprint,-0.9657512798476028,-0.4940225024207403,-0.001001406768534708,-3.126349984984656e-05,0.0038530775461014972,0.00626145332188529,0.9999729731439322,1e-05,0.0,0.0,0.0,0.0,0.0,0.0,1e-05,0.0,0.0,0.0,0.0,0.0,0.0,1000000000000.0,0.0,0.0,0.0,0.0,0.0,0.0,1000000000000.0,0.0,0.0,0.0,0.0,0.0,0.0,1000000000000.0,0.0,0.0,0.0,0.0,0.0,0.0,0.001,2.4077760921517066e-05,1.3230684265024022e-06,0.0,0.0,0.0,-2.4579235031333188e-06,0.0,0.0,0.0,0.0,0.0,0.0,0.0,0.0,0.0,0.0,0.0,0.0,0.0,0.0,0.0,0.0,0.0,0.0,0.0,0.0,0.0,0.0,0.0,0.0,0.0,0.0,0.0,0.0,0.0,0.0,0.0,0.0,0.0,0.0,0.0,0.0
278970000000,8357,278969000000,odom,base_footprint,-0.9657507109701899,-0.4940224789832932,-0.001001406771706445,-3.1264137379621104e-05,0.003853077564583814,0.006261617248364137,0.9999729721173819,1e-05,0.0,0.0,0.0,0.0,0.0,0.0,1e-05,0.0,0.0,0.0,0.0,0.0,0.0,1000000000000.0,0.0,0.0,0.0,0.0,0.0,0.0,1000000000000.0,0.0,0.0,0.0,0.0,0.0,0.0,1000000000000.0,0.0,0.0,0.0,0.0,0.0,0.0,0.001,2.408145853581277e-05,1.323043140020702e-06,0.0,0.0,0.0,-2.465762673092035e-06,0.0,0.0,0.0,0.0,0.0,0.0,0.0,0.0,0.0,0.0,0.0,0.0,0.0,0.0,0.0,0.0,0.0,0.0,0.0,0.0,0.0,0.0,0.0,0.0,0.0,0.0,0.0,0.0,0.0,0.0,0.0,0.0,0.0,0.0,0.0,0.0
279004000000,8358,279003000000,odom,base_footprint,-0.9657501247432789,-0.4940224548340758,-0.0010014067749752192,-3.126479372198005e-05,0.003853077583637006,0.006261786010313412,0.9999729710605224,1e-05,0.0,0.0,0.0,0.0,0.0,0.0,1e-05,0.0,0.0,0.0,0.0,0.0,0.0,1000000000000.0,0.0,0.0,0.0,0.0,0.0,0.0,1000000000000.0,0.0,0.0,0.0,0.0,0.0,0.0,1000000000000.0,0.0,0.0,0.0,0.0,0.0,0.0,0.001,2.4085268923621657e-05,1.3230170889618004e-06,0.0,0.0,0.0,-2.4738423898655384e-06,0.0,0.0,0.0,0.0,0.0,0.0,0.0,0.0,0.0,0.0,0.0,0.0,0.0,0.0,0.0,0.0,0.0,0.0,0.0,0.0,0.0,0.0,0.0,0.0,0.0,0.0,0.0,0.0,0.0,0.0,0.0,0.0,0.0,0.0,0.0,0.0
279037000000,8359,279036000000,odom,base_footprint,-0.9657495556507842,-0.4940224313936301,-0.0010014067781487779,-3.126543026840712e-05,0.0038530776021404953,0.006261949680517563,0.9999729700355223,1e-05,0.0,0.0,0.0,0.0,0.0,0.0,1e-05,0.0,0.0,0.0,0.0,0.0,0.0,1000000000000.0,0.0,0.0,0.0,0.0,0.0,0.0,1000000000000.0,0.0,0.0,0.0,0.0,0.0,0.0,1000000000000.0,0.0,0.0,0.0,0.0,0.0,0.0,0.001,2.408896804133919e-05,1.322991822172907e-06,0.0,0.0,0.0,-2.4816875127837747e-06,0.0,0.0,0.0,0.0,0.0,0.0,0.0,0.0,0.0,0.0,0.0,0.0,0.0,0.0,0.0,0.0,0.0,0.0,0.0,0.0,0.0,0.0,0.0,0.0,0.0,0.0,0.0,0.0,0.0,0.0,0.0,0.0,0.0,0.0,0.0,0.0
279069000000,8360,279069000000,odom,base_footprint,-0.9657489864523214,-0.49402240795170704,-0.0010014067813232316,-3.126606633036055e-05,0.0038530776206544626,0.006262113224430735,0.9999729690112862,1e-05,0.0,0.0,0.0,0.0,0.0,0.0,1e-05,0.0,0.0,0.0,0.0,0.0,0.0,1000000000000.0,0.0,0.0,0.0,0.0,0.0,0.0,1000000000000.0,0.0,0.0,0.0,0.0,0.0,0.0,1000000000000.0,0.0,0.0,0.0,0.0,0.0,0.0,0.001,2.4092667865292068e-05,1.3229665293244216e-06,0.0,0.0,0.0,-2.489535476617658e-06,0.0,0.0,0.0,0.0,0.0,0.0,0.0,0.0,0.0,0.0,0.0,0.0,0.0,0.0,0.0,0.0,0.0,0.0,0.0,0.0,0.0,0.0,0.0,0.0,0.0,0.0,0.0,0.0,0.0,0.0,0.0,0.0,0.0,0.0,0.0,0.0
279104000000,8361,279103000000,odom,base_footprint,-0.9657483998945646,-0.49402238379787744,-0.00100140678459483,-3.1266721160033676e-05,0.0038530776397404137,0.006262281592085358,0.9999729679568121,1e-05,0.0,0.0,0.0,0.0,0.0,0.0,1e-05,0.0,0.0,0.0,0.0,0.0,0.0,1000000000000.0,0.0,0.0,0.0,0.0,0.0,0.0,1000000000000.0,0.0,0.0,0.0,0.0,0.0,0.0,1000000000000.0,0.0,0.0,0.0,0.0,0.0,0.0,0.001,2.4096480583446723e-05,1.3229404449238847e-06,0.0,0.0,0.0,-2.497624535100051e-06,0.0,0.0,0.0,0.0,0.0,0.0,0.0,0.0,0.0,0.0,0.0,0.0,0.0,0.0,0.0,0.0,0.0,0.0,0.0,0.0,0.0,0.0,0.0,0.0,0.0,0.0,0.0,0.0,0.0,0.0,0.0,0.0,0.0,0.0,0.0,0.0
279137000000,8362,279136000000,odom,base_footprint,-0.9657478304808895,-0.49402236035295444,-0.0010014067877711363,-3.126735623783897e-05,0.003853077658275758,0.006262444879455663,0.9999729669341285,1e-05,0.0,0.0,0.0,0.0,0.0,0.0,1e-05,0.0,0.0,0.0,0.0,0.0,0.0,1000000000000.0,0.0,0.0,0.0,0.0,0.0,0.0,1000000000000.0,0.0,0.0,0.0,0.0,0.0,0.0,1000000000000.0,0.0,0.0,0.0,0.0,0.0,0.0,0.001,2.4100181921519054e-05,1.3229151229495194e-06,0.0,0.0,0.0,-2.50547858914204e-06,0.0,0.0,0.0,0.0,0.0,0.0,0.0,0.0,0.0,0.0,0.0,0.0,0.0,0.0,0.0,0.0,0.0,0.0,0.0,0.0,0.0,0.0,0.0,0.0,0.0,0.0,0.0,0.0,0.0,0.0,0.0,0.0,0.0,0.0,0.0,0.0
279170000000,8363,279169000000,odom,base_footprint,-0.9657472609611818,-0.4940223369065535,-0.0010014067909483414,-3.126799083070096e-05,0.003853077676821545,0.006262608040404466,0.9999729659122097,1e-05,0.0,0.0,0.0,0.0,0.0,0.0,1e-05,0.0,0.0,0.0,0.0,0.0,0.0,1000000000000.0,0.0,0.0,0.0,0.0,0.0,0.0,1000000000000.0,0.0,0.0,0.0,0.0,0.0,0.0,1000000000000.0,0.0,0.0,0.0,0.0,0.0,0.0,0.001,2.410388393576847e-05,1.3228898085863877e-06,0.0,0.0,0.0,-2.5133358133229766e-06,0.0,0.0,0.0,0.0,0.0,0.0,0.0,0.0,0.0,0.0,0.0,0.0,0.0,0.0,0.0,0.0,0.0,0.0,0.0,0.0,0.0,0.0,0.0,0.0,0.0,0.0,0.0,0.0,0.0,0.0,0.0,0.0,0.0,0.0,0.0,0.0
279204000000,8364,279203000000,odom,base_footprint,-0.9657466740723789,-0.4940223127481094,-0.0010014067942227568,-3.126864414632901e-05,0.0038530776959401856,0.006262776013351471,0.9999729648601244,1e-05,0.0,0.0,0.0,0.0,0.0,0.0,1e-05,0.0,0.0,0.0,0.0,0.0,0.0,1000000000000.0,0.0,0.0,0.0,0.0,0.0,0.0,1000000000000.0,0.0,0.0,0.0,0.0,0.0,0.0,1000000000000.0,0.0,0.0,0.0,0.0,0.0,0.0,0.001,2.410769896157449e-05,1.3228637064153006e-06,0.0,0.0,0.0,-2.5214341740187675e-06,0.0,0.0,0.0,0.0,0.0,0.0,0.0,0.0,0.0,0.0,0.0,0.0,0.0,0.0,0.0,0.0,0.0,0.0,0.0,0.0,0.0,0.0,0.0,0.0,0.0,0.0,0.0,0.0,0.0,0.0,0.0,0.0,0.0,0.0,0.0,0.0
279237000000,8365,279236000000,odom,base_footprint,-0.9657461043373285,-0.49402228929870734,-0.0010014067974018041,-3.126927775409379e-05,0.0038530777145073586,0.006262938917492947,0.9999729638397601,1e-05,0.0,0.0,0.0,0.0,0.0,0.0,1e-05,0.0,0.0,0.0,0.0,0.0,0.0,1000000000000.0,0.0,0.0,0.0,0.0,0.0,0.0,1000000000000.0,0.0,0.0,0.0,0.0,0.0,0.0,1000000000000.0,0.0,0.0,0.0,0.0,0.0,0.0,0.001,2.411140252436671e-05,1.3228383513295913e-06,0.0,0.0,0.0,-2.5292971185146543e-06,0.0,0.0,0.0,0.0,0.0,0.0,0.0,0.0,0.0,0.0,0.0,0.0,0.0,0.0,0.0,0.0,0.0,0.0,0.0,0.0,0.0,0.0,0.0,0.0,0.0,0.0,0.0,0.0,0.0,0.0,0.0,0.0,0.0,0.0,0.0,0.0
279270000000,8366,279269000000,odom,base_footprint,-0.9657455344961822,-0.4940222658478269,-0.0010014068005817604,-3.1269910876257065e-05,0.0038530777330848935,0.006263101695080615,0.9999729628201619,1e-05,0.0,0.0,0.0,0.0,0.0,0.0,1e-05,0.0,0.0,0.0,0.0,0.0,0.0,1000000000000.0,0.0,0.0,0.0,0.0,0.0,0.0,1000000000000.0,0.0,0.0,0.0,0.0,0.0,0.0,1000000000000.0,0.0,0.0,0.0,0.0,0.0,0.0,0.001,2.411510680197619e-05,1.3228130198420687e-06,0.0,0.0,0.0,-2.5371635287411478e-06,0.0,0.0,0.0,0.0,0.0,0.0,0.0,0.0,0.0,0.0,0.0,0.0,0.0,0.0,0.0,0.0,0.0,0.0,0.0,0.0,0.0,0.0,0.0,0.0,0.0,0.0,0.0,0.0,0.0,0.0,0.0,0.0,0.0,0.0,0.0,0.0
279304000000,8367,279303000000,odom,base_footprint,-0.9657449472761319,-0.4940222416847674,-0.001001406803859007,-3.1270562675822084e-05,0.0038530777522364236,0.006263269272909141,0.9999729617704682,1e-05,0.0,0.0,0.0,0.0,0.0,0.0,1e-05,0.0,0.0,0.0,0.0,0.0,0.0,1000000000000.0,0.0,0.0,0.0,0.0,0.0,0.0,1000000000000.0,0.0,0.0,0.0,0.0,0.0,0.0,1000000000000.0,0.0,0.0,0.0,0.0,0.0,0.0,0.001,2.4118924086529155e-05,1.3227868906281359e-06,0.0,0.0,0.0,-2.545271183426665e-06,0.0,0.0,0.0,0.0,0.0,0.0,0.0,0.0,0.0,0.0,0.0,0.0,0.0,0.0,0.0,0.0,0.0,0.0,0.0,0.0,0.0,0.0,0.0,0.0,0.0,0.0,0.0,0.0,0.0,0.0,0.0,0.0,0.0,0.0,0.0,0.0
279337000000,8368,279336000000,odom,base_footprint,-0.9657443772195125,-0.49402221823088455,-0.0010014068070407917,-3.127119481189795e-05,0.0038530777708353685,0.00626343179341761,0.9999729607524264,1e-05,0.0,0.0,0.0,0.0,0.0,0.0,1e-05,0.0,0.0,0.0,0.0,0.0,0.0,1000000000000.0,0.0,0.0,0.0,0.0,0.0,0.0,1000000000000.0,0.0,0.0,0.0,0.0,0.0,0.0,1000000000000.0,0.0,0.0,0.0,0.0,0.0,0.0,0.001,2.4122629874413837e-05,1.3227615174784486e-06,0.0,0.0,0.0,-2.5531435656251617e-06,0.0,0.0,0.0,0.0,0.0,0.0,0.0,0.0,0.0,0.0,0.0,0.0,0.0,0.0,0.0,0.0,0.0,0.0,0.0,0.0,0.0,0.0,0.0,0.0,0.0,0.0,0.0,0.0,0.0,0.0,0.0,0.0,0.0,0.0,0.0,0.0
279370000000,8369,279369000000,odom,base_footprint,-0.9657438070567319,-0.4940221947755231,-0.0010014068102234853,-3.127182646180553e-05,0.0038530777894447412,0.006263594187239298,0.9999729597351517,1e-05,0.0,0.0,0.0,0.0,0.0,0.0,1e-05,0.0,0.0,0.0,0.0,0.0,0.0,1000000000000.0,0.0,0.0,0.0,0.0,0.0,0.0,1000000000000.0,0.0,0.0,0.0,0.0,0.0,0.0,1000000000000.0,0.0,0.0,0.0,0.0,0.0,0.0,0.001,2.412633634743555e-05,1.3227361326423216e-06,0.0,0.0,0.0,-2.5610187915769537e-06,0.0,0.0,0.0,0.0,0.0,0.0,0.0,0.0,0.0,0.0,0.0,0.0,0.0,0.0,0.0,0.0,0.0,0.0,0.0,0.0,0.0,0.0,0.0,0.0,0.0,0.0,0.0,0.0,0.0,0.0,0.0,0.0,0.0,0.0,0.0,0.0
279404000000,8370,279403000000,odom,base_footprint,-0.965743219505234,-0.49402217060784614,-0.0010014068135035595,-3.127247674399161e-05,0.0038530778086291345,0.006263761369536003,0.9999729586878529,1e-05,0.0,0.0,0.0,0.0,0.0,0.0,1e-05,0.0,0.0,0.0,0.0,0.0,0.0,1000000000000.0,0.0,0.0,0.0,0.0,0.0,0.0,1000000000000.0,0.0,0.0,0.0,0.0,0.0,0.0,1000000000000.0,0.0,0.0,0.0,0.0,0.0,0.0,0.001,2.413015451712329e-05,1.3227098807750084e-06,0.0,0.0,0.0,-2.569135942723731e-06,0.0,0.0,0.0,0.0,0.0,0.0,0.0,0.0,0.0,0.0,0.0,0.0,0.0,0.0,0.0,0.0,0.0,0.0,0.0,0.0,0.0,0.0,0.0,0.0,0.0,0.0,0.0,0.0,0.0,0.0,0.0,0.0,0.0,0.0,0.0,0.0
279437000000,8371,279436000000,odom,base_footprint,-0.9657426491268499,-0.49402214714948134,-0.0010014068166881024,-3.127310740670994e-05,0.003853077827260064,0.006263923506012636,0.9999729576721367,1e-05,0.0,0.0,0.0,0.0,0.0,0.0,1e-05,0.0,0.0,0.0,0.0,0.0,0.0,1000000000000.0,0.0,0.0,0.0,0.0,0.0,0.0,1000000000000.0,0.0,0.0,0.0,0.0,0.0,0.0,1000000000000.0,0.0,0.0,0.0,0.0,0.0,0.0,0.001,2.4133862503278804e-05,1.3226844885671069e-06,0.0,0.0,0.0,-2.5770174100364566e-06,0.0,0.0,0.0,0.0,0.0,0.0,0.0,0.0,0.0,0.0,0.0,0.0,0.0,0.0,0.0,0.0,0.0,0.0,0.0,0.0,0.0,0.0,0.0,0.0,0.0,0.0,0.0,0.0,0.0,0.0,0.0,0.0,0.0,0.0,0.0,0.0
279470000000,8372,279469000000,odom,base_footprint,-0.9657420786422409,-0.4940221236896372,-0.001001406819873537,-3.127373758274956e-05,0.0038530778459013332,0.006264085515670205,0.9999729566571884,1e-05,0.0,0.0,0.0,0.0,0.0,0.0,1e-05,0.0,0.0,0.0,0.0,0.0,0.0,1000000000000.0,0.0,0.0,0.0,0.0,0.0,0.0,1000000000000.0,0.0,0.0,0.0,0.0,0.0,0.0,1000000000000.0,0.0,0.0,0.0,0.0,0.0,0.0,0.001,2.4137571238467047e-05,1.3226591046271141e-06,0.0,0.0,0.0,-2.584901718176311e-06,0.0,0.0,0.0,0.0,0.0,0.0,0.0,0.0,0.0,0.0,0.0,0.0,0.0,0.0,0.0,0.0,0.0,0.0,0.0,0.0,0.0,0.0,0.0,0.0,0.0,0.0,0.0,0.0,0.0,0.0,0.0,0.0,0.0,0.0,0.0,0.0
279504000000,8373,279503000000,odom,base_footprint,-0.965741490759095,-0.494022099517341,-0.0010014068231564525,-3.127438634610886e-05,0.003853077865118543,0.0062642523020239,0.9999729556122879,1e-05,0.0,0.0,0.0,0.0,0.0,0.0,1e-05,0.0,0.0,0.0,0.0,0.0,0.0,1000000000000.0,0.0,0.0,0.0,0.0,0.0,0.0,1000000000000.0,0.0,0.0,0.0,0.0,0.0,0.0,1000000000000.0,0.0,0.0,0.0,0.0,0.0,0.0,0.001,2.4141393137405847e-05,1.32263290933963e-06,0.0,0.0,0.0,-2.593028315966695e-06,0.0,0.0,0.0,0.0,0.0,0.0,0.0,0.0,0.0,0.0,0.0,0.0,0.0,0.0,0.0,0.0,0.0,0.0,0.0,0.0,0.0,0.0,0.0,0.0,0.0,0.0,0.0,0.0,0.0,0.0,0.0,0.0,0.0,0.0,0.0,0.0
279537000000,8374,279536000000,odom,base_footprint,-0.9657409200587517,-0.4940220760544922,-0.0010014068263437467,-3.127501553397595e-05,0.0038530778837812976,0.006264414054067739,0.9999729545989002,1e-05,0.0,0.0,0.0,0.0,0.0,0.0,1e-05,0.0,0.0,0.0,0.0,0.0,0.0,1000000000000.0,0.0,0.0,0.0,0.0,0.0,0.0,1000000000000.0,0.0,0.0,0.0,0.0,0.0,0.0,1000000000000.0,0.0,0.0,0.0,0.0,0.0,0.0,0.001,2.4145103381905867e-05,1.3226074743150936e-06,0.0,0.0,0.0,-2.6009187858885543e-06,0.0,0.0,0.0,0.0,0.0,0.0,0.0,0.0,0.0,0.0,0.0,0.0,0.0,0.0,0.0,0.0,0.0,0.0,0.0,0.0,0.0,0.0,0.0,0.0,0.0,0.0,0.0,0.0,0.0,0.0,0.0,0.0,0.0,0.0,0.0,0.0
279570000000,8375,279570000000,odom,base_footprint,-0.9657403492521187,-0.49402205259016374,-0.001001406829531936,-3.1275644234721384e-05,0.0038530779024544943,0.006264575679160905,0.9999729535862818,1e-05,0.0,0.0,0.0,0.0,0.0,0.0,1e-05,0.0,0.0,0.0,0.0,0.0,0.0,1000000000000.0,0.0,0.0,0.0,0.0,0.0,0.0,1000000000000.0,0.0,0.0,0.0,0.0,0.0,0.0,1000000000000.0,0.0,0.0,0.0,0.0,0.0,0.0,0.001,2.4148814316354612e-05,1.3225820378748853e-06,0.0,0.0,0.0,-2.608812394387279e-06,0.0,0.0,0.0,0.0,0.0,0.0,0.0,0.0,0.0,0.0,0.0,0.0,0.0,0.0,0.0,0.0,0.0,0.0,0.0,0.0,0.0,0.0,0.0,0.0,0.0,0.0,0.0,0.0,0.0,0.0,0.0,0.0,0.0,0.0,0.0,0.0
279604000000,8376,279604000000,odom,base_footprint,-0.9657397610371232,-0.4940220284132467,-0.0010014068328177,-3.127629147763363e-05,0.003853077921704756,0.0062647420691598465,0.9999729525437826,1e-05,0.0,0.0,0.0,0.0,0.0,0.0,1e-05,0.0,0.0,0.0,0.0,0.0,0.0,1000000000000.0,0.0,0.0,0.0,0.0,0.0,0.0,1000000000000.0,0.0,0.0,0.0,0.0,0.0,0.0,1000000000000.0,0.0,0.0,0.0,0.0,0.0,0.0,0.001,2.415263848406218e-05,1.3225558463188988e-06,0.0,0.0,0.0,-2.616948131277906e-06,0.0,0.0,0.0,0.0,0.0,0.0,0.0,0.0,0.0,0.0,0.0,0.0,0.0,0.0,0.0,0.0,0.0,0.0,0.0,0.0,0.0,0.0,0.0,0.0,0.0,0.0,0.0,0.0,0.0,0.0,0.0,0.0,0.0,0.0,0.0,0.0
279637000000,8377,279636000000,odom,base_footprint,-0.9657391900146255,-0.4940220049459125,-0.0010014068360077316,-3.1276919189086814e-05,0.0038530779403993854,0.006264903436371846,0.9999729515327266,1e-05,0.0,0.0,0.0,0.0,0.0,0.0,1e-05,0.0,0.0,0.0,0.0,0.0,0.0,1000000000000.0,0.0,0.0,0.0,0.0,0.0,0.0,1000000000000.0,0.0,0.0,0.0,0.0,0.0,0.0,1000000000000.0,0.0,0.0,0.0,0.0,0.0,0.0,0.001,2.4156350929513713e-05,1.3225304047587397e-06,0.0,0.0,0.0,-2.6248477356119033e-06,0.0,0.0,0.0,0.0,0.0,0.0,0.0,0.0,0.0,0.0,0.0,0.0,0.0,0.0,0.0,0.0,0.0,0.0,0.0,0.0,0.0,0.0,0.0,0.0,0.0,0.0,0.0,0.0,0.0,0.0,0.0,0.0,0.0,0.0,0.0,0.0
279670000000,8378,279669000000,odom,base_footprint,-0.9657386188857743,-0.4940219814770977,-0.0010014068391986687,-3.1277546412916486e-05,0.0038530779591046554,0.006265064676499499,0.9999729505224406,1e-05,0.0,0.0,0.0,0.0,0.0,0.0,1e-05,0.0,0.0,0.0,0.0,0.0,0.0,1000000000000.0,0.0,0.0,0.0,0.0,0.0,0.0,1000000000000.0,0.0,0.0,0.0,0.0,0.0,0.0,1000000000000.0,0.0,0.0,0.0,0.0,0.0,0.0,0.001,2.416006414423911e-05,1.3225049587099593e-06,0.0,0.0,0.0,-2.6327506047838735e-06,0.0,0.0,0.0,0.0,0.0,0.0,0.0,0.0,0.0,0.0,0.0,0.0,0.0,0.0,0.0,0.0,0.0,0.0,0.0,0.0,0.0,0.0,0.0,0.0,0.0,0.0,0.0,0.0,0.0,0.0,0.0,0.0,0.0,0.0,0.0,0.0
279704000000,8379,279703000000,odom,base_footprint,-0.9657380303387286,-0.49402195729555815,-0.0010014068424872673,-3.127819213359534e-05,0.0038530779783877344,0.006265230669727456,0.999972949482346,1e-05,0.0,0.0,0.0,0.0,0.0,0.0,1e-05,0.0,0.0,0.0,0.0,0.0,0.0,1000000000000.0,0.0,0.0,0.0,0.0,0.0,0.0,1000000000000.0,0.0,0.0,0.0,0.0,0.0,0.0,1000000000000.0,0.0,0.0,0.0,0.0,0.0,0.0,0.001,2.4163890592058087e-05,1.3224787175157038e-06,0.0,0.0,0.0,-2.6408957341600947e-06,0.0,0.0,0.0,0.0,0.0,0.0,0.0,0.0,0.0,0.0,0.0,0.0,0.0,0.0,0.0,0.0,0.0,0.0,0.0,0.0,0.0,0.0,0.0,0.0,0.0,0.0,0.0,0.0,0.0,0.0,0.0,0.0,0.0,0.0,0.0,0.0
279737000000,8380,279736000000,odom,base_footprint,-0.9657374589938814,-0.49402193382373677,-0.001001406845680057,-3.127881836721002e-05,0.003853077997114425,0.006265391651704219,0.9999729484736246,1e-05,0.0,0.0,0.0,0.0,0.0,0.0,1e-05,0.0,0.0,0.0,0.0,0.0,0.0,1000000000000.0,0.0,0.0,0.0,0.0,0.0,0.0,1000000000000.0,0.0,0.0,0.0,0.0,0.0,0.0,1000000000000.0,0.0,0.0,0.0,0.0,0.0,0.0,0.001,2.4167605296727133e-05,1.3224532229845083e-06,0.0,0.0,0.0,-2.648804641807198e-06,0.0,0.0,0.0,0.0,0.0,0.0,0.0,0.0,0.0,0.0,0.0,0.0,0.0,0.0,0.0,0.0,0.0,0.0,0.0,0.0,0.0,0.0,0.0,0.0,0.0,0.0,0.0,0.0,0.0,0.0,0.0,0.0,0.0,0.0,0.0,0.0
279770000000,8381,279769000000,odom,base_footprint,-0.9657368875426161,-0.4940219103504343,-0.0010014068488737593,-3.1279444112701634e-05,0.0038530780158515018,0.0062655525064645775,0.9999729474656747,1e-05,0.0,0.0,0.0,0.0,0.0,0.0,1e-05,0.0,0.0,0.0,0.0,0.0,0.0,1000000000000.0,0.0,0.0,0.0,0.0,0.0,0.0,1000000000000.0,0.0,0.0,0.0,0.0,0.0,0.0,1000000000000.0,0.0,0.0,0.0,0.0,0.0,0.0,0.001,2.4171320727918815e-05,1.3224277634043494e-06,0.0,0.0,0.0,-2.656716114946684e-06,0.0,0.0,0.0,0.0,0.0,0.0,0.0,0.0,0.0,0.0,0.0,0.0,0.0,0.0,0.0,0.0,0.0,0.0,0.0,0.0,0.0,0.0,0.0,0.0,0.0,0.0,0.0,0.0,0.0,0.0,0.0,0.0,0.0,0.0,0.0,0.0
279804000000,8382,279803000000,odom,base_footprint,-0.9657362986633188,-0.49402188616427045,-0.001001406852165189,-3.1280088309627486e-05,0.003853078035167664,0.006265718102511793,0.9999729464279877,1e-05,0.0,0.0,0.0,0.0,0.0,0.0,1e-05,0.0,0.0,0.0,0.0,0.0,0.0,1000000000000.0,0.0,0.0,0.0,0.0,0.0,0.0,1000000000000.0,0.0,0.0,0.0,0.0,0.0,0.0,1000000000000.0,0.0,0.0,0.0,0.0,0.0,0.0,0.001,2.417514948910967e-05,1.3224014933130874e-06,0.0,0.0,0.0,-2.664871018102652e-06,0.0,0.0,0.0,0.0,0.0,0.0,0.0,0.0,0.0,0.0,0.0,0.0,0.0,0.0,0.0,0.0,0.0,0.0,0.0,0.0,0.0,0.0,0.0,0.0,0.0,0.0,0.0,0.0,0.0,0.0,0.0,0.0,0.0,0.0,0.0,0.0
279837000000,8383,279836000000,odom,base_footprint,-0.9657357269959269,-0.4940218626879603,-0.0010014068553607439,-3.1280713063762766e-05,0.003853078053926338,0.006265878698852742,0.9999729454216044,1e-05,0.0,0.0,0.0,0.0,0.0,0.0,1e-05,0.0,0.0,0.0,0.0,0.0,0.0,1000000000000.0,0.0,0.0,0.0,0.0,0.0,0.0,1000000000000.0,0.0,0.0,0.0,0.0,0.0,0.0,1000000000000.0,0.0,0.0,0.0,0.0,0.0,0.0,0.001,2.4178866403085138e-05,1.3223759985221338e-06,0.0,0.0,0.0,-2.672788830871345e-06,0.0,0.0,0.0,0.0,0.0,0.0,0.0,0.0,0.0,0.0,0.0,0.0,0.0,0.0,0.0,0.0,0.0,0.0,0.0,0.0,0.0,0.0,0.0,0.0,0.0,0.0,0.0,0.0,0.0,0.0,0.0,0.0,0.0,0.0,0.0,0.0
279870000000,8384,279869000000,odom,base_footprint,-0.9657351552220523,-0.49402183921016846,-0.0010014068585572043,-3.128133732943719e-05,0.003853078072695537,0.006266039167845459,0.9999729444159932,1e-05,0.0,0.0,0.0,0.0,0.0,0.0,1e-05,0.0,0.0,0.0,0.0,0.0,0.0,1000000000000.0,0.0,0.0,0.0,0.0,0.0,0.0,1000000000000.0,0.0,0.0,0.0,0.0,0.0,0.0,1000000000000.0,0.0,0.0,0.0,0.0,0.0,0.0,0.001,2.4182584059024133e-05,1.3223504774426893e-06,0.0,0.0,0.0,-2.680709633464807e-06,0.0,0.0,0.0,0.0,0.0,0.0,0.0,0.0,0.0,0.0,0.0,0.0,0.0,0.0,0.0,0.0,0.0,0.0,0.0,0.0,0.0,0.0,0.0,0.0,0.0,0.0,0.0,0.0,0.0,0.0,0.0,0.0,0.0,0.0,0.0,0.0
279904000000,8385,279903000000,odom,base_footprint,-0.9657345660103025,-0.4940218150193786,-0.0010014068618514754,-3.128198000114742e-05,0.003853078092044524,0.006266204366293599,0.9999729433807167,1e-05,0.0,0.0,0.0,0.0,0.0,0.0,1e-05,0.0,0.0,0.0,0.0,0.0,0.0,1000000000000.0,0.0,0.0,0.0,0.0,0.0,0.0,1000000000000.0,0.0,0.0,0.0,0.0,0.0,0.0,1000000000000.0,0.0,0.0,0.0,0.0,0.0,0.0,0.001,2.4186413735711773e-05,1.32232410306967e-06,0.0,0.0,0.0,-2.6888738508081207e-06,0.0,0.0,0.0,0.0,0.0,0.0,0.0,0.0,0.0,0.0,0.0,0.0,0.0,0.0,0.0,0.0,0.0,0.0,0.0,0.0,0.0,0.0,0.0,0.0,0.0,0.0,0.0,0.0,0.0,0.0,0.0,0.0,0.0,0.0,0.0,0.0
279937000000,8386,279936000000,odom,base_footprint,-0.9657339940201703,-0.4940217915385781,-0.0010014068650497886,-3.128260327431542e-05,0.0038530781108353116,0.006266364576595787,0.9999729423766744,1e-05,0.0,0.0,0.0,0.0,0.0,0.0,1e-05,0.0,0.0,0.0,0.0,0.0,0.0,1000000000000.0,0.0,0.0,0.0,0.0,0.0,0.0,1000000000000.0,0.0,0.0,0.0,0.0,0.0,0.0,1000000000000.0,0.0,0.0,0.0,0.0,0.0,0.0,0.001,2.41901328648002e-05,1.3222986130826225e-06,0.0,0.0,0.0,-2.6968009173304487e-06,0.0,0.0,0.0,0.0,0.0,0.0,0.0,0.0,0.0,0.0,0.0,0.0,0.0,0.0,0.0,0.0,0.0,0.0,0.0,0.0,0.0,0.0,0.0,0.0,0.0,0.0,0.0,0.0,0.0,0.0,0.0,0.0,0.0,0.0,0.0,0.0
279970000000,8387,279969000000,odom,base_footprint,-0.9657334219234912,-0.4940217680562952,-0.0010014068682490211,-3.128322605853008e-05,0.003853078129636685,0.006266524659418934,0.9999729413734051,1e-05,0.0,0.0,0.0,0.0,0.0,0.0,1e-05,0.0,0.0,0.0,0.0,0.0,0.0,1000000000000.0,0.0,0.0,0.0,0.0,0.0,0.0,1000000000000.0,0.0,0.0,0.0,0.0,0.0,0.0,1000000000000.0,0.0,0.0,0.0,0.0,0.0,0.0,0.001,2.41938527574288e-05,1.3222730611711685e-06,0.0,0.0,0.0,-2.704730860223407e-06,0.0,0.0,0.0,0.0,0.0,0.0,0.0,0.0,0.0,0.0,0.0,0.0,0.0,0.0,0.0,0.0,0.0,0.0,0.0,0.0,0.0,0.0,0.0,0.0,0.0,0.0,0.0,0.0,0.0,0.0,0.0,0.0,0.0,0.0,0.0,0.0
280004000000,8388,280003000000,odom,base_footprint,-0.9652676096217576,-0.4940158323566414,-0.001001198095253078,-3.148107792007004e-05,0.003848718588261919,0.006311591374314717,0.9999726747209114,1e-05,0.0,0.0,0.0,0.0,0.0,0.0,1e-05,0.0,0.0,0.0,0.0,0.0,0.0,1000000000000.0,0.0,0.0,0.0,0.0,0.0,0.0,1000000000000.0,0.0,0.0,0.0,0.0,0.0,0.0,1000000000000.0,0.0,0.0,0.0,0.0,0.0,0.0,0.001,0.026690972284405094,-1.9132932636417035e-06,0.0,0.0,0.0,0.005086276650519363,0.0,0.0,0.0,0.0,0.0,0.0,0.0,0.0,0.0,0.0,0.0,0.0,0.0,0.0,0.0,0.0,0.0,0.0,0.0,0.0,0.0,0.0,0.0,0.0,0.0,0.0,0.0,0.0,0.0,0.0,0.0,0.0,0.0,0.0,0.0,0.0
280037000000,8389,280036000000,odom,base_footprint,-0.9639508071350767,-0.4939992401802389,-0.0010012617203024703,-3.2013936671577425e-05,0.0038492176511918243,0.006437558256815233,0.999971869775481,1e-05,0.0,0.0,0.0,0.0,0.0,0.0,1e-05,0.0,0.0,0.0,0.0,0.0,0.0,1000000000000.0,0.0,0.0,0.0,0.0,0.0,0.0,1000000000000.0,0.0,0.0,0.0,0.0,0.0,0.0,1000000000000.0,0.0,0.0,0.0,0.0,0.0,0.0,0.001,0.05243973840902165,-5.2960753693108474e-06,0.0,0.0,0.0,0.010170817307552505,0.0,0.0,0.0,0.0,0.0,0.0,0.0,0.0,0.0,0.0,0.0,0.0,0.0,0.0,0.0,0.0,0.0,0.0,0.0,0.0,0.0,0.0,0.0,0.0,0.0,0.0,0.0,0.0,0.0,0.0,0.0,0.0,0.0,0.0,0.0,0.0
280070000000,8390,280069000000,odom,base_footprint,-0.9617897704783163,-0.4939713289782717,-0.0010013587087408897,-3.2903688708440205e-05,0.003849991816378871,0.00664946502469047,0.9999704801119114,1e-05,0.0,0.0,0.0,0.0,0.0,0.0,1e-05,0.0,0.0,0.0,0.0,0.0,0.0,1000000000000.0,0.0,0.0,0.0,0.0,0.0,0.0,1000000000000.0,0.0,0.0,0.0,0.0,0.0,0.0,1000000000000.0,0.0,0.0,0.0,0.0,0.0,0.0,0.001,0.07781362915681152,-1.0731589628455154e-05,0.0,0.0,0.0,0.015550390889581248,0.0,0.0,0.0,0.0,0.0,0.0,0.0,0.0,0.0,0.0,0.0,0.0,0.0,0.0,0.0,0.0,0.0,0.0,0.0,0.0,0.0,0.0,0.0,0.0,0.0,0.0,0.0,0.0,0.0,0.0,0.0,0.0,0.0,0.0,0.0,0.0
280104000000,8391,280103000000,odom,base_footprint,-0.9587012366152331,-0.4939299388173739,-0.0010014981488837525,-3.4217837564238676e-05,0.003851158986719762,0.006963729711646655,0.9999683364347602,1e-05,0.0,0.0,0.0,0.0,0.0,0.0,1e-05,0.0,0.0,0.0,0.0,0.0,0.0,1000000000000.0,0.0,0.0,0.0,0.0,0.0,0.0,1000000000000.0,0.0,0.0,0.0,0.0,0.0,0.0,1000000000000.0,0.0,0.0,0.0,0.0,0.0,0.0,0.001,0.10305741604168314,-1.910392401900272e-05,0.0,0.0,0.0,0.021506670117250277,0.0,0.0,0.0,0.0,0.0,0.0,0.0,0.0,0.0,0.0,0.0,0.0,0.0,0.0,0.0,0.0,0.0,0.0,0.0,0.0,0.0,0.0,0.0,0.0,0.0,0.0,0.0,0.0,0.0,0.0,0.0,0.0,0.0,0.0,0.0,0.0
